$GPRMC,101622.000,A,5034.264,N,00227.382,W,0.45,326.42,110422,,*1F
$GPGGA,101622.000,5034.264,N,00227.382,W,1,06,1.4,5.340,M,0.0,M,,*75
$GPVTG,326.420,T,0,M,0.447,N,0.828,K*54
$GPGSA,A,3,,,,,,,,,,,,,0.0,1.4,0.0*37
$GPRMC,101623.000,A,5034.264,N,00227.382,W,0.60,345.23,110422,,*1B
$GPGGA,101623.000,5034.264,N,00227.382,W,1,06,1.4,5.310,M,0.0,M,,*71
$GPVTG,345.230,T,0,M,0.603,N,1.116,K*51
$GPGSA,A,3,,,,,,,,,,,,,0.0,1.4,0.0*37
$GPRMC,101624.000,A,5034.265,N,00227.382,W,0.76,36.22,110422,,*2C
$GPGGA,101624.000,5034.265,N,00227.382,W,1,06,1.4,5.440,M,0.0,M,,*75
$GPVTG,36.220,T,0,M,0.758,N,1.404,K*6E
$GPGSA,A,3,,,,,,,,,,,,,0.0,1.4,0.0*37
$GPRMC,101625.000,A,5034.265,N,00227.382,W,1.13,37.90,110422,,*27
$GPGGA,101625.000,5034.265,N,00227.382,W,1,06,1.4,5.440,M,0.0,M,,*74
$GPVTG,37.900,T,0,M,1.127,N,2.088,K*6A
$GPGSA,A,3,,,,,,,,,,,,,0.0,1.4,0.0*37
$GPRMC,101626.000,A,5034.265,N,00227.381,W,0.70,34.71,110422,,*2F
$GPGGA,101626.000,5034.265,N,00227.381,W,1,06,1.4,5.460,M,0.0,M,,*76
$GPVTG,34.710,T,0,M,0.700,N,1.296,K*6A
$GPGSA,A,3,,,,,,,,,,,,,0.0,1.4,0.0*37
$GPRMC,101627.000,A,5034.265,N,00227.381,W,0.41,57.78,110422,,*20
$GPGGA,101627.000,5034.265,N,00227.381,W,1,06,1.4,5.550,M,0.0,M,,*75
$GPVTG,57.780,T,0,M,0.408,N,0.756,K*65
$GPGSA,A,3,,,,,,,,,,,,,0.0,1.4,0.0*37
$GPRMC,101628.000,A,5034.265,N,00227.381,W,0.35,166.03,110422,,*13
$GPGGA,101628.000,5034.265,N,00227.381,W,1,06,1.4,5.620,M,0.0,M,,*7E
$GPVTG,166.030,T,0,M,0.350,N,0.648,K*5E
$GPGSA,A,3,,,,,,,,,,,,,0.0,1.4,0.0*37
$GPRMC,101631.000,A,5034.265,N,00227.381,W,1.05,217.32,110422,,*1E
$GPGGA,101631.000,5034.265,N,00227.381,W,1,07,1.2,5.310,M,0.0,M,,*77
$GPVTG,217.320,T,0,M,1.050,N,1.944,K*59
$GPGSA,A,3,,,,,,,,,,,,,0.0,1.2,0.0*31
$GPRMC,101632.000,A,5034.265,N,00227.381,W,1.19,147.62,110422,,*13
$GPGGA,101632.000,5034.265,N,00227.381,W,1,07,1.2,5.150,M,0.0,M,,*72
$GPVTG,147.620,T,0,M,1.186,N,2.196,K*54
$GPGSA,A,3,,,,,,,,,,,,,0.0,1.2,0.0*31
$GPRMC,101633.000,A,5034.265,N,00227.381,W,0.82,170.30,110422,,*12
$GPGGA,101633.000,5034.265,N,00227.381,W,1,07,1.2,5.150,M,0.0,M,,*73
$GPVTG,170.300,T,0,M,0.816,N,1.512,K*5D
$GPGSA,A,3,,,,,,,,,,,,,0.0,1.2,0.0*31
$GPRMC,101634.000,A,5034.264,N,00227.381,W,1.21,179.64,110422,,*14
$GPGGA,101634.000,5034.264,N,00227.381,W,1,07,1.2,5.080,M,0.0,M,,*79
$GPVTG,179.640,T,0,M,1.205,N,2.232,K*5A
$GPGSA,A,3,,,,,,,,,,,,,0.0,1.2,0.0*31
$GPRMC,101635.000,A,5034.264,N,00227.381,W,0.70,178.58,110422,,*1E
$GPGGA,101635.000,5034.264,N,00227.381,W,1,07,1.2,5.150,M,0.0,M,,*74
$GPVTG,178.580,T,0,M,0.700,N,1.296,K*58
$GPGSA,A,3,,,,,,,,,,,,,0.0,1.2,0.0*31
$GPRMC,101642.000,A,5034.265,N,00227.381,W,0.64,167.32,110422,,*18
$GPGGA,101642.000,5034.265,N,00227.381,W,1,07,1.2,6.190,M,0.0,M,,*7A
$GPVTG,167.320,T,0,M,0.641,N,1.188,K*52
$GPGSA,A,3,,,,,,,,,,,,,0.0,1.2,0.0*31
$GPRMC,101645.000,A,5034.265,N,00227.381,W,0.74,109.41,110422,,*12
$GPGGA,101645.000,5034.265,N,00227.381,W,1,07,1.2,6.660,M,0.0,M,,*75
$GPVTG,109.410,T,0,M,0.739,N,1.368,K*5C
$GPGSA,A,3,,,,,,,,,,,,,0.0,1.2,0.0*31
$GPRMC,101646.000,A,5034.265,N,00227.381,W,0.58,152.91,110422,,*1C
$GPGGA,101646.000,5034.265,N,00227.381,W,1,07,1.2,6.450,M,0.0,M,,*77
$GPVTG,152.910,T,0,M,0.583,N,1.080,K*59
$GPGSA,A,3,,,,,,,,,,,,,0.0,1.2,0.0*31
$GPRMC,101647.000,A,5034.265,N,00227.381,W,0.27,190.05,110422,,*16
$GPGGA,101647.000,5034.265,N,00227.381,W,1,07,1.2,6.370,M,0.0,M,,*73
$GPVTG,190.050,T,0,M,0.272,N,0.504,K*5B
$GPGSA,A,3,,,,,,,,,,,,,0.0,1.2,0.0*31
$GPRMC,101648.000,A,5034.265,N,00227.381,W,0.25,176.96,110422,,*19
$GPGGA,101648.000,5034.265,N,00227.381,W,1,07,1.2,6.270,M,0.0,M,,*7D
$GPVTG,176.960,T,0,M,0.253,N,0.468,K*51
$GPGSA,A,3,,,,,,,,,,,,,0.0,1.2,0.0*31
$GPRMC,101652.000,A,5034.265,N,00227.381,W,0.29,124.37,110422,,*12
$GPGGA,101652.000,5034.265,N,00227.381,W,1,07,1.2,6.540,M,0.0,M,,*72
$GPVTG,124.370,T,0,M,0.292,N,0.540,K*5B
$GPGSA,A,3,,,,,,,,,,,,,0.0,1.2,0.0*31
$GPRMC,101653.000,A,5034.265,N,00227.381,W,0.52,56.18,110422,,*26
$GPGGA,101653.000,5034.265,N,00227.381,W,1,07,1.2,6.450,M,0.0,M,,*73
$GPVTG,56.180,T,0,M,0.525,N,0.972,K*64
$GPGSA,A,3,,,,,,,,,,,,,0.0,1.2,0.0*31
$GPRMC,101654.000,A,5034.265,N,00227.381,W,0.52,94.64,110422,,*24
$GPGGA,101654.000,5034.265,N,00227.381,W,1,07,1.2,6.770,M,0.0,M,,*75
$GPVTG,94.640,T,0,M,0.525,N,0.972,K*61
$GPGSA,A,3,,,,,,,,,,,,,0.0,1.2,0.0*31
$GPRMC,101655.000,A,5034.265,N,00227.381,W,0.56,293.53,110422,,*10
$GPGGA,101655.000,5034.265,N,00227.381,W,1,07,1.2,6.290,M,0.0,M,,*7F
$GPVTG,293.530,T,0,M,0.564,N,1.044,K*58
$GPGSA,A,3,,,,,,,,,,,,,0.0,1.2,0.0*31
$GPRMC,101656.000,A,5034.265,N,00227.381,W,0.52,295.05,110422,,*12
$GPGGA,101656.000,5034.265,N,00227.381,W,1,07,1.2,6.190,M,0.0,M,,*7F
$GPVTG,295.050,T,0,M,0.525,N,0.972,K*55
$GPGSA,A,3,,,,,,,,,,,,,0.0,1.2,0.0*31
$GPRMC,101657.000,A,5034.265,N,00227.382,W,0.41,242.21,110422,,*1E
$GPGGA,101657.000,5034.265,N,00227.382,W,1,07,1.2,6.090,M,0.0,M,,*7C
$GPVTG,242.210,T,0,M,0.408,N,0.756,K*5F
$GPGSA,A,3,,,,,,,,,,,,,0.0,1.2,0.0*31
$GPRMC,101701.000,A,5034.265,N,00227.382,W,0.27,105.15,110422,,*1B
$GPGGA,101701.000,5034.265,N,00227.382,W,1,07,1.2,6.250,M,0.0,M,,*70
$GPVTG,105.150,T,0,M,0.272,N,0.504,K*56
$GPGSA,A,3,,,,,,,,,,,,,0.0,1.2,0.0*31
$GPRMC,101702.000,A,5034.265,N,00227.382,W,0.74,54.76,110422,,*2E
$GPGGA,101702.000,5034.265,N,00227.382,W,1,07,1.2,6.450,M,0.0,M,,*75
$GPVTG,54.760,T,0,M,0.739,N,1.368,K*61
$GPGSA,A,3,,,,,,,,,,,,,0.0,1.2,0.0*31
$GPRMC,101703.000,A,5034.265,N,00227.382,W,0.56,91.71,110422,,*21
$GPGGA,101703.000,5034.265,N,00227.382,W,1,07,1.2,6.330,M,0.0,M,,*75
$GPVTG,91.710,T,0,M,0.564,N,1.044,K*68
$GPGSA,A,3,,,,,,,,,,,,,0.0,1.2,0.0*31
$GPRMC,101704.000,A,5034.265,N,00227.382,W,0.74,223.32,110422,,*1A
$GPGGA,101704.000,5034.265,N,00227.382,W,1,07,1.2,6.420,M,0.0,M,,*74
$GPVTG,223.320,T,0,M,0.739,N,1.368,K*53
$GPGSA,A,3,,,,,,,,,,,,,0.0,1.2,0.0*31
$GPRMC,101707.000,A,5034.265,N,00227.382,W,0.27,267.35,110422,,*18
$GPGGA,101707.000,5034.265,N,00227.382,W,1,07,1.2,7.570,M,0.0,M,,*72
$GPVTG,267.350,T,0,M,0.272,N,0.504,K*53
$GPGSA,A,3,,,,,,,,,,,,,0.0,1.2,0.0*31
$GPRMC,101708.000,A,5034.265,N,00227.382,W,0.41,273.96,110422,,*1B
$GPGGA,101708.000,5034.265,N,00227.382,W,1,07,1.2,7.850,M,0.0,M,,*72
$GPVTG,273.960,T,0,M,0.408,N,0.756,K*51
$GPGSA,A,3,,,,,,,,,,,,,0.0,1.2,0.0*31
$GPRMC,101709.000,A,5034.265,N,00227.382,W,0.47,64.25,110422,,*20
$GPGGA,101709.000,5034.265,N,00227.382,W,1,07,1.2,7.970,M,0.0,M,,*70
$GPVTG,64.250,T,0,M,0.467,N,0.864,K*6A
$GPGSA,A,3,,,,,,,,,,,,,0.0,1.2,0.0*31
$GPRMC,101710.000,A,5034.265,N,00227.382,W,0.39,183.19,110422,,*16
$GPGGA,101710.000,5034.265,N,00227.382,W,1,07,1.2,8.000,M,0.0,M,,*79
$GPVTG,183.190,T,0,M,0.389,N,0.720,K*55
$GPGSA,A,3,,,,,,,,,,,,,0.0,1.2,0.0*31
$GPRMC,101711.000,A,5034.265,N,00227.383,W,1.01,242.12,110422,,*19
$GPGGA,101711.000,5034.265,N,00227.383,W,1,07,1.2,8.030,M,0.0,M,,*7A
$GPVTG,242.120,T,0,M,1.011,N,1.872,K*5A
$GPGSA,A,3,,,,,,,,,,,,,0.0,1.2,0.0*31
$GPRMC,101712.000,A,5034.265,N,00227.383,W,0.47,209.71,110422,,*13
$GPGGA,101712.000,5034.265,N,00227.383,W,1,07,1.2,8.240,M,0.0,M,,*7C
$GPVTG,209.710,T,0,M,0.467,N,0.864,K*52
$GPGSA,A,3,,,,,,,,,,,,,0.0,1.2,0.0*31
$GPRMC,101747.000,A,5034.265,N,00227.384,W,0.25,213.01,110422,,*1C
$GPGGA,101747.000,5034.265,N,00227.384,W,1,07,1.2,9.770,M,0.0,M,,*7C
$GPVTG,213.010,T,0,M,0.253,N,0.468,K*5F
$GPGSA,A,3,,,,,,,,,,,,,0.0,1.2,0.0*31
$GPRMC,101749.000,A,5034.265,N,00227.384,W,0.43,0.30,110422,,*10
$GPGGA,101749.000,5034.265,N,00227.384,W,1,08,1.2,10.400,M,0.0,M,,*41
$GPVTG,0.300,T,0,M,0.428,N,0.792,K*51
$GPGSA,A,3,,,,,,,,,,,,,0.0,1.2,0.0*31
$GPRMC,101750.000,A,5034.265,N,00227.384,W,0.70,95.64,110422,,*25
$GPGGA,101750.000,5034.265,N,00227.384,W,1,08,1.2,10.770,M,0.0,M,,*4D
$GPVTG,95.640,T,0,M,0.700,N,1.296,K*65
$GPGSA,A,3,,,,,,,,,,,,,0.0,1.2,0.0*31
$GPRMC,101751.000,A,5034.265,N,00227.383,W,1.24,153.78,110422,,*15
$GPGGA,101751.000,5034.265,N,00227.383,W,1,08,1.2,10.810,M,0.0,M,,*42
$GPVTG,153.780,T,0,M,1.244,N,2.304,K*5E
$GPGSA,A,3,,,,,,,,,,,,,0.0,1.2,0.0*31
$GPRMC,101753.000,A,5034.265,N,00227.383,W,0.60,336.05,110422,,*1D
$GPGGA,101753.000,5034.265,N,00227.383,W,1,08,1.2,10.950,M,0.0,M,,*45
$GPVTG,336.050,T,0,M,0.603,N,1.116,K*51
$GPGSA,A,3,,,,,,,,,,,,,0.0,1.2,0.0*31
$GPRMC,101754.000,A,5034.265,N,00227.383,W,1.05,194.51,110422,,*13
$GPGGA,101754.000,5034.265,N,00227.383,W,1,08,1.2,10.740,M,0.0,M,,*4D
$GPVTG,194.510,T,0,M,1.050,N,1.944,K*54
$GPGSA,A,3,,,,,,,,,,,,,0.0,1.2,0.0*31
$GPRMC,101755.000,A,5034.265,N,00227.384,W,0.56,341.25,110422,,*1B
$GPGGA,101755.000,5034.265,N,00227.384,W,1,08,1.2,10.670,M,0.0,M,,*49
$GPVTG,341.250,T,0,M,0.564,N,1.044,K*57
$GPGSA,A,3,,,,,,,,,,,,,0.0,1.2,0.0*31
$GPRMC,101756.000,A,5034.265,N,00227.384,W,0.47,292.45,110422,,*11
$GPGGA,101756.000,5034.265,N,00227.384,W,1,08,1.2,10.900,M,0.0,M,,*42
$GPVTG,292.450,T,0,M,0.467,N,0.864,K*57
$GPGSA,A,3,,,,,,,,,,,,,0.0,1.2,0.0*31
$GPRMC,101817.000,A,5034.265,N,00227.382,W,0.93,82.56,110422,,*25
$GPGGA,101817.000,5034.265,N,00227.382,W,1,08,1.2,6.230,M,0.0,M,,*71
$GPVTG,82.560,T,0,M,0.933,N,1.728,K*6C
$GPGSA,A,3,,,,,,,,,,,,,0.0,1.2,0.0*31
$GPRMC,101819.000,A,5034.265,N,00227.382,W,0.56,170.10,110422,,*1C
$GPGGA,101819.000,5034.265,N,00227.382,W,1,07,1.6,5.920,M,0.0,M,,*7D
$GPVTG,170.100,T,0,M,0.564,N,1.044,K*51
$GPGSA,A,3,,,,,,,,,,,,,0.0,1.6,0.0*35
$GPRMC,101820.000,A,5034.264,N,00227.382,W,0.66,132.18,110422,,*1A
$GPGGA,101820.000,5034.264,N,00227.382,W,1,08,1.2,6.000,M,0.0,M,,*75
$GPVTG,132.180,T,0,M,0.661,N,1.224,K*5D
$GPGSA,A,3,,,,,,,,,,,,,0.0,1.2,0.0*31
$GPRMC,101821.000,A,5034.264,N,00227.382,W,0.54,178.99,110422,,*1D
$GPGGA,101821.000,5034.264,N,00227.382,W,1,08,1.2,5.950,M,0.0,M,,*7B
$GPVTG,178.990,T,0,M,0.544,N,1.008,K*52
$GPGSA,A,3,,,,,,,,,,,,,0.0,1.2,0.0*31
$GPRMC,101822.000,A,5034.264,N,00227.382,W,0.70,158.48,110422,,*16
$GPGGA,101822.000,5034.264,N,00227.382,W,1,08,1.2,5.770,M,0.0,M,,*74
$GPVTG,158.480,T,0,M,0.700,N,1.296,K*5B
$GPGSA,A,3,,,,,,,,,,,,,0.0,1.2,0.0*31
$GPRMC,101827.000,A,5034.264,N,00227.381,W,0.66,162.22,110422,,*12
$GPGGA,101827.000,5034.264,N,00227.381,W,1,08,1.2,4.660,M,0.0,M,,*73
$GPVTG,162.220,T,0,M,0.661,N,1.224,K*51
$GPGSA,A,3,,,,,,,,,,,,,0.0,1.2,0.0*31
$GPRMC,101828.000,A,5034.264,N,00227.382,W,0.66,312.90,110422,,*12
$GPGGA,101828.000,5034.264,N,00227.382,W,1,08,1.2,4.570,M,0.0,M,,*7D
$GPVTG,312.900,T,0,M,0.661,N,1.224,K*5D
$GPGSA,A,3,,,,,,,,,,,,,0.0,1.2,0.0*31
$GPRMC,101924.000,A,5034.265,N,00227.382,W,0.31,16.57,110422,,*20
$GPGGA,101924.000,5034.265,N,00227.382,W,1,08,1.2,4.770,M,0.0,M,,*73
$GPVTG,16.570,T,0,M,0.311,N,0.576,K*62
$GPGSA,A,3,,,,,,,,,,,,,0.0,1.2,0.0*31
$GPRMC,101927.000,A,5034.265,N,00227.382,W,0.29,198.76,110422,,*1E
$GPGGA,101927.000,5034.265,N,00227.382,W,1,08,1.2,4.640,M,0.0,M,,*72
$GPVTG,198.760,T,0,M,0.292,N,0.540,K*59
$GPGSA,A,3,,,,,,,,,,,,,0.0,1.2,0.0*31
$GPRMC,102031.000,A,5034.263,N,00227.382,W,0.56,184.52,110422,,*16
$GPGGA,102031.000,5034.263,N,00227.382,W,1,08,1.2,4.840,M,0.0,M,,*77
$GPVTG,184.520,T,0,M,0.564,N,1.044,K*5C
$GPGSA,A,3,,,,,,,,,,,,,0.0,1.2,0.0*31
$GPRMC,102044.000,A,5034.264,N,00227.383,W,0.37,288.44,110422,,*1D
$GPGGA,102044.000,5034.264,N,00227.383,W,1,08,1.2,5.210,M,0.0,M,,*7D
$GPVTG,288.440,T,0,M,0.369,N,0.684,K*54
$GPGSA,A,3,,,,,,,,,,,,,0.0,1.2,0.0*31
$GPRMC,102045.000,A,5034.264,N,00227.383,W,0.51,141.73,110422,,*1E
$GPGGA,102045.000,5034.264,N,00227.383,W,1,08,1.2,5.210,M,0.0,M,,*7C
$GPVTG,141.730,T,0,M,0.505,N,0.936,K*5C
$GPGSA,A,3,,,,,,,,,,,,,0.0,1.2,0.0*31
$GPRMC,102114.000,A,5034.265,N,00227.382,W,0.35,213.25,110422,,*1E
$GPGGA,102114.000,5034.265,N,00227.382,W,1,09,0.8,4.760,M,0.0,M,,*70
$GPVTG,213.250,T,0,M,0.350,N,0.648,K*5B
$GPGSA,A,3,,,,,,,,,,,,,0.0,0.8,0.0*3A
$GPRMC,102115.000,A,5034.265,N,00227.382,W,0.33,194.05,110422,,*17
$GPGGA,102115.000,5034.265,N,00227.382,W,1,09,0.8,4.840,M,0.0,M,,*7C
$GPVTG,194.050,T,0,M,0.330,N,0.612,K*5C
$GPGSA,A,3,,,,,,,,,,,,,0.0,0.8,0.0*3A
$GPRMC,102116.000,A,5034.265,N,00227.382,W,0.25,12.92,110422,,*22
$GPGGA,102116.000,5034.265,N,00227.382,W,1,09,0.8,4.890,M,0.0,M,,*72
$GPVTG,12.920,T,0,M,0.253,N,0.468,K*66
$GPGSA,A,3,,,,,,,,,,,,,0.0,0.8,0.0*3A
$GPRMC,102211.000,A,5034.265,N,00227.383,W,0.27,206.54,110422,,*18
$GPGGA,102211.000,5034.265,N,00227.383,W,1,09,0.8,7.200,M,0.0,M,,*77
$GPVTG,206.540,T,0,M,0.272,N,0.504,K*53
$GPGSA,A,3,,,,,,,,,,,,,0.0,0.8,0.0*3A
$GPRMC,102216.000,A,5034.265,N,00227.383,W,0.27,45.70,110422,,*2C
$GPGGA,102216.000,5034.265,N,00227.383,W,1,09,0.8,7.140,M,0.0,M,,*77
$GPVTG,45.700,T,0,M,0.272,N,0.504,K*60
$GPGSA,A,3,,,,,,,,,,,,,0.0,0.8,0.0*3A
$GPRMC,102217.000,A,5034.265,N,00227.383,W,0.35,129.33,110422,,*12
$GPGGA,102217.000,5034.265,N,00227.383,W,1,09,0.8,7.770,M,0.0,M,,*73
$GPVTG,129.330,T,0,M,0.350,N,0.648,K*56
$GPGSA,A,3,,,,,,,,,,,,,0.0,0.8,0.0*3A
$GPRMC,102324.000,A,5034.265,N,00227.384,W,0.27,104.43,110422,,*1F
$GPGGA,102324.000,5034.265,N,00227.384,W,1,09,0.8,7.320,M,0.0,M,,*74
$GPVTG,104.430,T,0,M,0.272,N,0.504,K*54
$GPGSA,A,3,,,,,,,,,,,,,0.0,0.8,0.0*3A
$GPRMC,102330.000,A,5034.265,N,00227.384,W,0.31,184.55,110422,,*12
$GPGGA,102330.000,5034.265,N,00227.384,W,1,09,0.8,7.070,M,0.0,M,,*77
$GPVTG,184.550,T,0,M,0.311,N,0.576,K*5A
$GPGSA,A,3,,,,,,,,,,,,,0.0,0.8,0.0*3A
$GPRMC,102331.000,A,5034.265,N,00227.384,W,0.29,183.62,110422,,*19
$GPGGA,102331.000,5034.265,N,00227.384,W,1,09,0.8,6.990,M,0.0,M,,*70
$GPVTG,183.620,T,0,M,0.292,N,0.540,K*56
$GPGSA,A,3,,,,,,,,,,,,,0.0,0.8,0.0*3A
$GPRMC,102339.000,A,5034.265,N,00227.384,W,0.29,189.59,110422,,*13
$GPGGA,102339.000,5034.265,N,00227.384,W,1,09,0.8,6.480,M,0.0,M,,*74
$GPVTG,189.590,T,0,M,0.292,N,0.540,K*54
$GPGSA,A,3,,,,,,,,,,,,,0.0,0.8,0.0*3A
$GPRMC,102345.000,A,5034.265,N,00227.384,W,0.33,187.68,110422,,*1F
$GPGGA,102345.000,5034.265,N,00227.384,W,1,09,0.8,6.300,M,0.0,M,,*70
$GPVTG,187.680,T,0,M,0.330,N,0.612,K*55
$GPGSA,A,3,,,,,,,,,,,,,0.0,0.8,0.0*3A
$GPRMC,102351.000,A,5034.265,N,00227.384,W,0.29,159.65,110422,,*1F
$GPGGA,102351.000,5034.265,N,00227.384,W,1,09,0.8,6.380,M,0.0,M,,*7D
$GPVTG,159.650,T,0,M,0.292,N,0.540,K*56
$GPGSA,A,3,,,,,,,,,,,,,0.0,0.8,0.0*3A
$GPRMC,102352.000,A,5034.265,N,00227.383,W,1.42,132.89,110422,,*18
$GPGGA,102352.000,5034.265,N,00227.383,W,1,08,0.8,6.470,M,0.0,M,,*70
$GPVTG,132.890,T,0,M,1.419,N,2.628,K*52
$GPGSA,A,3,,,,,,,,,,,,,0.0,0.8,0.0*3A
$GPRMC,102353.000,A,5034.265,N,00227.383,W,0.37,160.38,110422,,*17
$GPGGA,102353.000,5034.265,N,00227.383,W,1,08,1.2,6.540,M,0.0,M,,*78
$GPVTG,160.380,T,0,M,0.369,N,0.684,K*5A
$GPGSA,A,3,,,,,,,,,,,,,0.0,1.2,0.0*31
$GPRMC,102354.000,A,5034.265,N,00227.383,W,0.35,31.33,110422,,*2C
$GPGGA,102354.000,5034.265,N,00227.383,W,1,09,0.8,6.380,M,0.0,M,,*7F
$GPVTG,31.330,T,0,M,0.350,N,0.648,K*6E
$GPGSA,A,3,,,,,,,,,,,,,0.0,0.8,0.0*3A
$GPRMC,102355.000,A,5034.265,N,00227.383,W,0.35,315.48,110422,,*14
$GPGGA,102355.000,5034.265,N,00227.383,W,1,09,0.8,6.280,M,0.0,M,,*7F
$GPVTG,315.480,T,0,M,0.350,N,0.648,K*57
$GPGSA,A,3,,,,,,,,,,,,,0.0,0.8,0.0*3A
$GPRMC,102359.000,A,5034.265,N,00227.383,W,0.33,319.93,110422,,*14
$GPGGA,102359.000,5034.265,N,00227.383,W,1,09,0.8,6.140,M,0.0,M,,*7C
$GPVTG,319.930,T,0,M,0.330,N,0.612,K*54
$GPGSA,A,3,,,,,,,,,,,,,0.0,0.8,0.0*3A
$GPRMC,102400.000,A,5034.265,N,00227.383,W,0.41,338.64,110422,,*11
$GPGGA,102400.000,5034.265,N,00227.383,W,1,09,0.8,5.940,M,0.0,M,,*7C
$GPVTG,338.640,T,0,M,0.408,N,0.756,K*52
$GPGSA,A,3,,,,,,,,,,,,,0.0,0.8,0.0*3A
$GPRMC,102413.000,A,5034.266,N,00227.382,W,0.43,2.06,110422,,*1D
$GPGGA,102413.000,5034.266,N,00227.382,W,1,09,0.8,5.150,M,0.0,M,,*75
$GPVTG,2.060,T,0,M,0.428,N,0.792,K*56
$GPGSA,A,3,,,,,,,,,,,,,0.0,0.8,0.0*3A
$GPRMC,102414.000,A,5034.266,N,00227.382,W,1.19,15.28,110422,,*2E
$GPGGA,102414.000,5034.266,N,00227.382,W,1,09,0.8,4.990,M,0.0,M,,*77
$GPVTG,15.280,T,0,M,1.186,N,2.196,K*6C
$GPGSA,A,3,,,,,,,,,,,,,0.0,0.8,0.0*3A
$GPRMC,102415.000,A,5034.266,N,00227.382,W,1.87,59.42,110422,,*2C
$GPGGA,102415.000,5034.266,N,00227.382,W,1,09,0.8,4.900,M,0.0,M,,*7F
$GPVTG,59.420,T,0,M,1.866,N,3.456,K*67
$GPGSA,A,3,,,,,,,,,,,,,0.0,0.8,0.0*3A
$GPRMC,102416.000,A,5034.266,N,00227.381,W,2.62,112.58,110422,,*11
$GPGGA,102416.000,5034.266,N,00227.381,W,1,09,0.8,4.850,M,0.0,M,,*7B
$GPVTG,112.580,T,0,M,2.624,N,4.860,K*57
$GPGSA,A,3,,,,,,,,,,,,,0.0,0.8,0.0*3A
$GPRMC,102417.000,A,5034.266,N,00227.380,W,1.89,151.38,110422,,*16
$GPGGA,102417.000,5034.266,N,00227.380,W,1,09,0.8,4.890,M,0.0,M,,*77
$GPVTG,151.380,T,0,M,1.886,N,3.492,K*55
$GPGSA,A,3,,,,,,,,,,,,,0.0,0.8,0.0*3A
$GPRMC,102418.000,A,5034.266,N,00227.380,W,0.70,63.73,110422,,*21
$GPGGA,102418.000,5034.266,N,00227.380,W,1,09,0.8,4.910,M,0.0,M,,*71
$GPVTG,63.730,T,0,M,0.700,N,1.296,K*6A
$GPGSA,A,3,,,,,,,,,,,,,0.0,0.8,0.0*3A
$GPRMC,102419.000,A,5034.266,N,00227.380,W,0.43,294.39,110422,,*14
$GPGGA,102419.000,5034.266,N,00227.380,W,1,09,0.8,5.000,M,0.0,M,,*79
$GPVTG,294.390,T,0,M,0.428,N,0.792,K*57
$GPGSA,A,3,,,,,,,,,,,,,0.0,0.8,0.0*3A
$GPRMC,102424.000,A,5034.266,N,00227.380,W,0.91,172.34,110422,,*13
$GPGGA,102424.000,5034.266,N,00227.380,W,1,09,0.8,4.580,M,0.0,M,,*7B
$GPVTG,172.340,T,0,M,0.914,N,1.692,K*53
$GPGSA,A,3,,,,,,,,,,,,,0.0,0.8,0.0*3A
$GPRMC,102425.000,A,5034.265,N,00227.379,W,2.41,158.22,110422,,*17
$GPGGA,102425.000,5034.265,N,00227.379,W,1,09,0.8,4.500,M,0.0,M,,*77
$GPVTG,158.220,T,0,M,2.410,N,4.464,K*59
$GPGSA,A,3,,,,,,,,,,,,,0.0,0.8,0.0*3A
$GPRMC,102426.000,A,5034.265,N,00227.379,W,2.76,169.75,110422,,*10
$GPGGA,102426.000,5034.265,N,00227.379,W,1,09,0.8,4.540,M,0.0,M,,*70
$GPVTG,169.750,T,0,M,2.760,N,5.112,K*58
$GPGSA,A,3,,,,,,,,,,,,,0.0,0.8,0.0*3A
$GPRMC,102427.000,A,5034.264,N,00227.379,W,1.32,210.91,110422,,*14
$GPGGA,102427.000,5034.264,N,00227.379,W,1,09,0.8,4.470,M,0.0,M,,*72
$GPVTG,210.910,T,0,M,1.322,N,2.448,K*53
$GPGSA,A,3,,,,,,,,,,,,,0.0,0.8,0.0*3A
$GPRMC,102428.000,A,5034.264,N,00227.379,W,2.24,89.48,110422,,*29
$GPGGA,102428.000,5034.264,N,00227.379,W,1,09,0.8,4.380,M,0.0,M,,*75
$GPVTG,89.480,T,0,M,2.235,N,4.140,K*6A
$GPGSA,A,3,,,,,,,,,,,,,0.0,0.8,0.0*3A
$GPRMC,102429.000,A,5034.264,N,00227.378,W,2.88,3.54,110422,,*10
$GPGGA,102429.000,5034.264,N,00227.378,W,1,09,0.8,4.150,M,0.0,M,,*7A
$GPVTG,3.540,T,0,M,2.877,N,5.328,K*54
$GPGSA,A,3,,,,,,,,,,,,,0.0,0.8,0.0*3A
$GPRMC,102430.000,A,5034.265,N,00227.379,W,3.93,324.78,110422,,*1B
$GPGGA,102430.000,5034.265,N,00227.379,W,1,09,0.8,4.310,M,0.0,M,,*74
$GPVTG,324.780,T,0,M,3.927,N,7.272,K*55
$GPGSA,A,3,,,,,,,,,,,,,0.0,0.8,0.0*3A
$GPRMC,102432.000,A,5034.266,N,00227.379,W,0.64,319.40,110422,,*14
$GPGGA,102432.000,5034.266,N,00227.379,W,1,09,0.8,4.350,M,0.0,M,,*71
$GPVTG,319.400,T,0,M,0.641,N,1.188,K*5C
$GPGSA,A,3,,,,,,,,,,,,,0.0,0.8,0.0*3A
$GPRMC,102435.000,A,5034.266,N,00227.379,W,0.25,97.01,110422,,*26
$GPGGA,102435.000,5034.266,N,00227.379,W,1,09,0.8,4.440,M,0.0,M,,*70
$GPVTG,97.010,T,0,M,0.253,N,0.468,K*61
$GPGSA,A,3,,,,,,,,,,,,,0.0,0.8,0.0*3A
$GPRMC,102436.000,A,5034.266,N,00227.379,W,0.35,202.37,110422,,*1F
$GPGGA,102436.000,5034.266,N,00227.379,W,1,09,0.8,4.500,M,0.0,M,,*76
$GPVTG,202.370,T,0,M,0.350,N,0.648,K*58
$GPGSA,A,3,,,,,,,,,,,,,0.0,0.8,0.0*3A
$GPRMC,102437.000,A,5034.266,N,00227.379,W,0.51,339.98,110422,,*10
$GPGGA,102437.000,5034.266,N,00227.379,W,1,09,0.8,4.570,M,0.0,M,,*70
$GPVTG,339.980,T,0,M,0.505,N,0.936,K*54
$GPGSA,A,3,,,,,,,,,,,,,0.0,0.8,0.0*3A
$GPRMC,102439.000,A,5034.266,N,00227.379,W,0.37,13.43,110422,,*23
$GPGGA,102439.000,5034.266,N,00227.379,W,1,09,0.8,4.740,M,0.0,M,,*7F
$GPVTG,13.430,T,0,M,0.369,N,0.684,K*63
$GPGSA,A,3,,,,,,,,,,,,,0.0,0.8,0.0*3A
$GPRMC,102440.000,A,5034.266,N,00227.379,W,0.49,0.90,110422,,*18
$GPGGA,102440.000,5034.266,N,00227.379,W,1,09,0.8,4.760,M,0.0,M,,*73
$GPVTG,0.900,T,0,M,0.486,N,0.900,K*5A
$GPGSA,A,3,,,,,,,,,,,,,0.0,0.8,0.0*3A
$GPRMC,102441.000,A,5034.266,N,00227.379,W,1.42,137.80,110422,,*17
$GPGGA,102441.000,5034.266,N,00227.379,W,1,08,1.2,5.040,M,0.0,M,,*7C
$GPVTG,137.800,T,0,M,1.419,N,2.628,K*5E
$GPGSA,A,3,,,,,,,,,,,,,0.0,1.2,0.0*31
$GPRMC,102443.000,A,5034.266,N,00227.379,W,1.48,265.38,110422,,*18
$GPGGA,102443.000,5034.266,N,00227.379,W,1,09,0.8,5.210,M,0.0,M,,*73
$GPVTG,265.380,T,0,M,1.477,N,2.736,K*5F
$GPGSA,A,3,,,,,,,,,,,,,0.0,0.8,0.0*3A
$GPRMC,102444.000,A,5034.266,N,00227.380,W,0.49,223.26,110422,,*14
$GPGGA,102444.000,5034.266,N,00227.380,W,1,09,0.8,5.400,M,0.0,M,,*75
$GPVTG,223.260,T,0,M,0.486,N,0.900,K*54
$GPGSA,A,3,,,,,,,,,,,,,0.0,0.8,0.0*3A
$GPRMC,102447.000,A,5034.266,N,00227.380,W,0.74,121.46,110422,,*1E
$GPGGA,102447.000,5034.266,N,00227.380,W,1,09,0.8,4.970,M,0.0,M,,*7D
$GPVTG,121.460,T,0,M,0.739,N,1.368,K*51
$GPGSA,A,3,,,,,,,,,,,,,0.0,0.8,0.0*3A
$GPRMC,102448.000,A,5034.266,N,00227.379,W,0.84,83.92,110422,,*28
$GPGGA,102448.000,5034.266,N,00227.379,W,1,09,0.8,5.330,M,0.0,M,,*7B
$GPVTG,83.920,T,0,M,0.836,N,1.548,K*65
$GPGSA,A,3,,,,,,,,,,,,,0.0,0.8,0.0*3A
$GPRMC,102449.000,A,5034.266,N,00227.379,W,0.52,136.21,110422,,*15
$GPGGA,102449.000,5034.266,N,00227.379,W,1,09,0.8,5.320,M,0.0,M,,*7B
$GPVTG,136.210,T,0,M,0.525,N,0.972,K*59
$GPGSA,A,3,,,,,,,,,,,,,0.0,0.8,0.0*3A
$GPRMC,102450.000,A,5034.266,N,00227.379,W,1.22,338.72,110422,,*11
$GPGGA,102450.000,5034.266,N,00227.379,W,1,09,0.8,5.170,M,0.0,M,,*74
$GPVTG,338.720,T,0,M,1.225,N,2.268,K*57
$GPGSA,A,3,,,,,,,,,,,,,0.0,0.8,0.0*3A
$GPRMC,102451.000,A,5034.266,N,00227.380,W,2.18,303.32,110422,,*10
$GPGGA,102451.000,5034.266,N,00227.380,W,1,09,0.8,4.960,M,0.0,M,,*7B
$GPVTG,303.320,T,0,M,2.177,N,4.032,K*57
$GPGSA,A,3,,,,,,,,,,,,,0.0,0.8,0.0*3A
$GPRMC,102452.000,A,5034.266,N,00227.381,W,3.36,266.97,110422,,*12
$GPGGA,102452.000,5034.266,N,00227.381,W,1,09,0.8,4.880,M,0.0,M,,*76
$GPVTG,266.970,T,0,M,3.363,N,6.228,K*57
$GPGSA,A,3,,,,,,,,,,,,,0.0,0.8,0.0*3A
$GPRMC,102453.000,A,5034.265,N,00227.382,W,4.16,199.42,110422,,*1D
$GPGGA,102453.000,5034.265,N,00227.382,W,1,09,0.8,4.940,M,0.0,M,,*7A
$GPVTG,199.420,T,0,M,4.160,N,7.704,K*50
$GPGSA,A,3,,,,,,,,,,,,,0.0,0.8,0.0*3A
$GPRMC,102454.000,A,5034.264,N,00227.382,W,3.07,153.03,110422,,*1F
$GPGGA,102454.000,5034.264,N,00227.382,W,1,09,0.8,4.660,M,0.0,M,,*71
$GPVTG,153.030,T,0,M,3.071,N,5.688,K*52
$GPGSA,A,3,,,,,,,,,,,,,0.0,0.8,0.0*3A
$GPRMC,102455.000,A,5034.264,N,00227.382,W,1.01,353.59,110422,,*17
$GPGGA,102455.000,5034.264,N,00227.382,W,1,08,0.8,4.460,M,0.0,M,,*73
$GPVTG,353.590,T,0,M,1.011,N,1.872,K*54
$GPGSA,A,3,,,,,,,,,,,,,0.0,0.8,0.0*3A
$GPRMC,102456.000,A,5034.264,N,00227.382,W,0.43,150.43,110422,,*19
$GPGGA,102456.000,5034.264,N,00227.382,W,1,09,0.8,4.290,M,0.0,M,,*78
$GPVTG,150.430,T,0,M,0.428,N,0.792,K*51
$GPGSA,A,3,,,,,,,,,,,,,0.0,0.8,0.0*3A
$GPRMC,102457.000,A,5034.264,N,00227.381,W,1.07,151.87,110422,,*13
$GPGGA,102457.000,5034.264,N,00227.381,W,1,09,0.8,4.330,M,0.0,M,,*71
$GPVTG,151.870,T,0,M,1.069,N,1.980,K*54
$GPGSA,A,3,,,,,,,,,,,,,0.0,0.8,0.0*3A
$GPRMC,102458.000,A,5034.264,N,00227.381,W,1.44,342.58,110422,,*19
$GPGGA,102458.000,5034.264,N,00227.381,W,1,09,0.8,3.980,M,0.0,M,,*78
$GPVTG,342.580,T,0,M,1.438,N,2.664,K*50
$GPGSA,A,3,,,,,,,,,,,,,0.0,0.8,0.0*3A
$GPRMC,102459.000,A,5034.265,N,00227.381,W,2.60,18.17,110422,,*2B
$GPGGA,102459.000,5034.265,N,00227.381,W,1,09,0.8,3.600,M,0.0,M,,*7F
$GPVTG,18.170,T,0,M,2.605,N,4.824,K*64
$GPGSA,A,3,,,,,,,,,,,,,0.0,0.8,0.0*3A
$GPRMC,102500.000,A,5034.265,N,00227.381,W,1.81,57.42,110422,,*21
$GPGGA,102500.000,5034.265,N,00227.381,W,1,09,0.8,3.130,M,0.0,M,,*76
$GPVTG,57.420,T,0,M,1.808,N,3.348,K*69
$GPGSA,A,3,,,,,,,,,,,,,0.0,0.8,0.0*3A
$GPRMC,102501.000,A,5034.265,N,00227.380,W,2.16,133.05,110422,,*1C
$GPGGA,102501.000,5034.265,N,00227.380,W,1,09,0.8,2.720,M,0.0,M,,*70
$GPVTG,133.050,T,0,M,2.158,N,3.996,K*5F
$GPGSA,A,3,,,,,,,,,,,,,0.0,0.8,0.0*3A
$GPRMC,102502.000,A,5034.265,N,00227.380,W,1.90,163.30,110422,,*11
$GPGGA,102502.000,5034.265,N,00227.380,W,1,09,0.8,2.580,M,0.0,M,,*7B
$GPVTG,163.300,T,0,M,1.905,N,3.528,K*56
$GPGSA,A,3,,,,,,,,,,,,,0.0,0.8,0.0*3A
$GPRMC,102503.000,A,5034.265,N,00227.379,W,0.64,88.18,110422,,*22
$GPGGA,102503.000,5034.265,N,00227.379,W,1,09,0.8,2.910,M,0.0,M,,*79
$GPVTG,88.180,T,0,M,0.641,N,1.188,K*6A
$GPGSA,A,3,,,,,,,,,,,,,0.0,0.8,0.0*3A
$GPRMC,102505.000,A,5034.265,N,00227.379,W,0.31,213.60,110422,,*1B
$GPGGA,102505.000,5034.265,N,00227.379,W,1,09,0.8,3.310,M,0.0,M,,*74
$GPVTG,213.600,T,0,M,0.311,N,0.576,K*51
$GPGSA,A,3,,,,,,,,,,,,,0.0,0.8,0.0*3A
$GPRMC,102508.000,A,5034.265,N,00227.379,W,1.09,160.99,110422,,*1D
$GPGGA,102508.000,5034.265,N,00227.379,W,1,09,0.8,3.410,M,0.0,M,,*7E
$GPVTG,160.990,T,0,M,1.089,N,2.016,K*52
$GPGSA,A,3,,,,,,,,,,,,,0.0,0.8,0.0*3A
$GPRMC,102509.000,A,5034.264,N,00227.379,W,3.23,154.22,110422,,*10
$GPGGA,102509.000,5034.264,N,00227.379,W,1,08,1.0,3.380,M,0.0,M,,*78
$GPVTG,154.220,T,0,M,3.227,N,5.976,K*59
$GPGSA,A,3,,,,,,,,,,,,,0.0,1.0,0.0*33
$GPRMC,102510.000,A,5034.263,N,00227.379,W,2.20,173.51,110422,,*1C
$GPGGA,102510.000,5034.263,N,00227.379,W,1,09,0.8,3.690,M,0.0,M,,*7B
$GPVTG,173.510,T,0,M,2.197,N,4.068,K*56
$GPGSA,A,3,,,,,,,,,,,,,0.0,0.8,0.0*3A
$GPRMC,102511.000,A,5034.263,N,00227.379,W,1.40,238.89,110422,,*11
$GPGGA,102511.000,5034.263,N,00227.379,W,1,09,0.8,3.890,M,0.0,M,,*74
$GPVTG,238.890,T,0,M,1.400,N,2.592,K*51
$GPGSA,A,3,,,,,,,,,,,,,0.0,0.8,0.0*3A
$GPRMC,102512.000,A,5034.263,N,00227.379,W,0.54,236.82,110422,,*13
$GPGGA,102512.000,5034.263,N,00227.379,W,1,09,0.8,3.840,M,0.0,M,,*7A
$GPVTG,236.820,T,0,M,0.544,N,1.008,K*51
$GPGSA,A,3,,,,,,,,,,,,,0.0,0.8,0.0*3A
$GPRMC,102514.000,A,5034.263,N,00227.379,W,1.19,70.54,110422,,*26
$GPGGA,102514.000,5034.263,N,00227.379,W,1,09,0.8,3.760,M,0.0,M,,*71
$GPVTG,70.540,T,0,M,1.186,N,2.196,K*64
$GPGSA,A,3,,,,,,,,,,,,,0.0,0.8,0.0*3A
$GPRMC,102516.000,A,5034.263,N,00227.379,W,0.80,181.61,110422,,*1C
$GPGGA,102516.000,5034.263,N,00227.379,W,1,09,0.8,3.780,M,0.0,M,,*7D
$GPVTG,181.610,T,0,M,0.797,N,1.476,K*52
$GPGSA,A,3,,,,,,,,,,,,,0.0,0.8,0.0*3A
$GPRMC,102521.000,A,5034.263,N,00227.379,W,0.47,30.09,110422,,*26
$GPGGA,102521.000,5034.263,N,00227.379,W,1,09,0.8,4.420,M,0.0,M,,*77
$GPVTG,30.090,T,0,M,0.467,N,0.864,K*65
$GPGSA,A,3,,,,,,,,,,,,,0.0,0.8,0.0*3A
$GPRMC,102522.000,A,5034.263,N,00227.379,W,1.22,259.69,110422,,*1C
$GPGGA,102522.000,5034.263,N,00227.379,W,1,09,0.8,4.940,M,0.0,M,,*7F
$GPVTG,259.690,T,0,M,1.225,N,2.268,K*5B
$GPGSA,A,3,,,,,,,,,,,,,0.0,0.8,0.0*3A
$GPRMC,102523.000,A,5034.263,N,00227.380,W,1.94,292.37,110422,,*1A
$GPGGA,102523.000,5034.263,N,00227.380,W,1,09,0.8,5.240,M,0.0,M,,*72
$GPVTG,292.370,T,0,M,1.944,N,3.600,K*50
$GPGSA,A,3,,,,,,,,,,,,,0.0,0.8,0.0*3A
$GPRMC,102524.000,A,5034.264,N,00227.380,W,2.37,326.42,110422,,*1C
$GPGGA,102524.000,5034.264,N,00227.380,W,1,09,0.8,5.400,M,0.0,M,,*70
$GPVTG,326.420,T,0,M,2.371,N,4.392,K*5A
$GPGSA,A,3,,,,,,,,,,,,,0.0,0.8,0.0*3A
$GPRMC,102525.000,A,5034.264,N,00227.381,W,2.14,334.29,110422,,*13
$GPGGA,102525.000,5034.264,N,00227.381,W,1,09,0.8,5.700,M,0.0,M,,*73
$GPVTG,334.290,T,0,M,2.138,N,3.960,K*5B
$GPGSA,A,3,,,,,,,,,,,,,0.0,0.8,0.0*3A
$GPRMC,102526.000,A,5034.264,N,00227.381,W,1.22,323.67,110422,,*1A
$GPGGA,102526.000,5034.264,N,00227.381,W,1,09,0.8,5.600,M,0.0,M,,*71
$GPVTG,323.670,T,0,M,1.225,N,2.268,K*59
$GPGSA,A,3,,,,,,,,,,,,,0.0,0.8,0.0*3A
$GPRMC,102527.000,A,5034.265,N,00227.382,W,2.62,332.01,110422,,*1E
$GPGGA,102527.000,5034.265,N,00227.382,W,1,09,0.8,5.580,M,0.0,M,,*79
$GPVTG,332.010,T,0,M,2.624,N,4.860,K*5B
$GPGSA,A,3,,,,,,,,,,,,,0.0,0.8,0.0*3A
$GPRMC,102528.000,A,5034.266,N,00227.382,W,2.43,326.01,110422,,*14
$GPGGA,102528.000,5034.266,N,00227.382,W,1,09,0.8,5.430,M,0.0,M,,*7F
$GPVTG,326.010,T,0,M,2.430,N,4.500,K*52
$GPGSA,A,3,,,,,,,,,,,,,0.0,0.8,0.0*3A
$GPRMC,102529.000,A,5034.266,N,00227.383,W,2.31,335.45,110422,,*13
$GPGGA,102529.000,5034.266,N,00227.383,W,1,09,0.8,5.430,M,0.0,M,,*7F
$GPVTG,335.450,T,0,M,2.313,N,4.284,K*5D
$GPGSA,A,3,,,,,,,,,,,,,0.0,0.8,0.0*3A
$GPRMC,102530.000,A,5034.267,N,00227.383,W,2.59,337.58,110422,,*1A
$GPGGA,102530.000,5034.267,N,00227.383,W,1,09,0.8,5.500,M,0.0,M,,*74
$GPVTG,337.580,T,0,M,2.585,N,4.788,K*53
$GPGSA,A,3,,,,,,,,,,,,,0.0,0.8,0.0*3A
$GPRMC,102531.000,A,5034.268,N,00227.384,W,2.95,327.06,110422,,*19
$GPGGA,102531.000,5034.268,N,00227.384,W,1,09,0.8,5.590,M,0.0,M,,*74
$GPVTG,327.060,T,0,M,2.955,N,5.472,K*5F
$GPGSA,A,3,,,,,,,,,,,,,0.0,0.8,0.0*3A
$GPRMC,102532.000,A,5034.268,N,00227.385,W,2.62,313.78,110422,,*1D
$GPGGA,102532.000,5034.268,N,00227.385,W,1,09,0.8,5.610,M,0.0,M,,*7D
$GPVTG,313.780,T,0,M,2.624,N,4.860,K*56
$GPGSA,A,3,,,,,,,,,,,,,0.0,0.8,0.0*3A
$GPRMC,102533.000,A,5034.269,N,00227.386,W,2.55,312.31,110422,,*16
$GPGGA,102533.000,5034.269,N,00227.386,W,1,09,0.8,5.670,M,0.0,M,,*78
$GPVTG,312.310,T,0,M,2.546,N,4.716,K*53
$GPGSA,A,3,,,,,,,,,,,,,0.0,0.8,0.0*3A
$GPRMC,102534.000,A,5034.269,N,00227.387,W,2.55,294.10,110422,,*1C
$GPGGA,102534.000,5034.269,N,00227.387,W,1,09,0.8,5.750,M,0.0,M,,*7D
$GPVTG,294.100,T,0,M,2.546,N,4.716,K*5F
$GPGSA,A,3,,,,,,,,,,,,,0.0,0.8,0.0*3A
$GPRMC,102535.000,A,5034.269,N,00227.387,W,2.04,287.38,110422,,*11
$GPGGA,102535.000,5034.269,N,00227.387,W,1,09,0.8,5.760,M,0.0,M,,*7F
$GPVTG,287.380,T,0,M,2.041,N,3.780,K*5D
$GPGSA,A,3,,,,,,,,,,,,,0.0,0.8,0.0*3A
$GPRMC,102536.000,A,5034.270,N,00227.388,W,1.50,264.66,110422,,*11
$GPGGA,102536.000,5034.270,N,00227.388,W,1,09,0.8,5.700,M,0.0,M,,*7D
$GPVTG,264.660,T,0,M,1.497,N,2.772,K*5B
$GPGSA,A,3,,,,,,,,,,,,,0.0,0.8,0.0*3A
$GPRMC,102537.000,A,5034.269,N,00227.389,W,1.22,234.95,110422,,*15
$GPGGA,102537.000,5034.269,N,00227.389,W,1,09,0.8,5.630,M,0.0,M,,*77
$GPVTG,234.950,T,0,M,1.225,N,2.268,K*53
$GPGSA,A,3,,,,,,,,,,,,,0.0,0.8,0.0*3A
$GPRMC,102538.000,A,5034.269,N,00227.389,W,1.22,230.45,110422,,*13
$GPGGA,102538.000,5034.269,N,00227.389,W,1,09,0.8,5.840,M,0.0,M,,*71
$GPVTG,230.450,T,0,M,1.225,N,2.268,K*5A
$GPGSA,A,3,,,,,,,,,,,,,0.0,0.8,0.0*3A
$GPRMC,102539.000,A,5034.269,N,00227.390,W,0.51,187.26,110422,,*15
$GPGGA,102539.000,5034.269,N,00227.390,W,1,09,0.8,5.820,M,0.0,M,,*7E
$GPVTG,187.260,T,0,M,0.505,N,0.936,K*56
$GPGSA,A,3,,,,,,,,,,,,,0.0,0.8,0.0*3A
$GPRMC,102544.000,A,5034.269,N,00227.390,W,0.33,214.72,110422,,*13
$GPGGA,102544.000,5034.269,N,00227.390,W,1,08,1.2,5.810,M,0.0,M,,*7D
$GPVTG,214.720,T,0,M,0.330,N,0.612,K*57
$GPGSA,A,3,,,,,,,,,,,,,0.0,1.2,0.0*31
$GPRMC,102553.000,A,5034.269,N,00227.390,W,0.41,88.29,110422,,*29
$GPGGA,102553.000,5034.269,N,00227.390,W,1,09,0.8,6.010,M,0.0,M,,*7A
$GPVTG,88.290,T,0,M,0.408,N,0.756,K*63
$GPGSA,A,3,,,,,,,,,,,,,0.0,0.8,0.0*3A
$GPRMC,102556.000,A,5034.269,N,00227.390,W,0.29,198.85,110422,,*14
$GPGGA,102556.000,5034.269,N,00227.390,W,1,09,0.8,6.120,M,0.0,M,,*7D
$GPVTG,198.850,T,0,M,0.292,N,0.540,K*55
$GPGSA,A,3,,,,,,,,,,,,,0.0,0.8,0.0*3A
$GPRMC,102557.000,A,5034.269,N,00227.390,W,0.29,233.00,110422,,*1A
$GPGGA,102557.000,5034.269,N,00227.390,W,1,09,0.8,6.080,M,0.0,M,,*77
$GPVTG,233.000,T,0,M,0.292,N,0.540,K*5A
$GPGSA,A,3,,,,,,,,,,,,,0.0,0.8,0.0*3A
$GPRMC,102558.000,A,5034.269,N,00227.390,W,0.31,239.56,110422,,*15
$GPGGA,102558.000,5034.269,N,00227.390,W,1,09,0.8,6.100,M,0.0,M,,*71
$GPVTG,239.560,T,0,M,0.311,N,0.576,K*5C
$GPGSA,A,3,,,,,,,,,,,,,0.0,0.8,0.0*3A
$GPRMC,102559.000,A,5034.269,N,00227.390,W,0.68,75.75,110422,,*23
$GPGGA,102559.000,5034.269,N,00227.390,W,1,09,0.8,6.170,M,0.0,M,,*77
$GPVTG,75.750,T,0,M,0.680,N,1.260,K*6B
$GPGSA,A,3,,,,,,,,,,,,,0.0,0.8,0.0*3A
$GPRMC,102600.000,A,5034.269,N,00227.390,W,0.29,352.77,110422,,*1D
$GPGGA,102600.000,5034.269,N,00227.390,W,1,09,0.8,6.240,M,0.0,M,,*78
$GPVTG,352.770,T,0,M,0.292,N,0.540,K*5C
$GPGSA,A,3,,,,,,,,,,,,,0.0,0.8,0.0*3A
$GPRMC,102603.000,A,5034.270,N,00227.390,W,0.31,91.02,110422,,*21
$GPGGA,102603.000,5034.270,N,00227.390,W,1,09,0.8,6.330,M,0.0,M,,*75
$GPVTG,91.020,T,0,M,0.311,N,0.576,K*6D
$GPGSA,A,3,,,,,,,,,,,,,0.0,0.8,0.0*3A
$GPRMC,102604.000,A,5034.270,N,00227.390,W,0.66,75.62,110422,,*28
$GPGGA,102604.000,5034.270,N,00227.390,W,1,09,0.8,6.360,M,0.0,M,,*77
$GPVTG,75.620,T,0,M,0.661,N,1.224,K*62
$GPGSA,A,3,,,,,,,,,,,,,0.0,0.8,0.0*3A
$GPRMC,102620.000,A,5034.270,N,00227.390,W,0.29,91.82,110422,,*21
$GPGGA,102620.000,5034.270,N,00227.390,W,1,09,0.8,6.190,M,0.0,M,,*7C
$GPVTG,91.820,T,0,M,0.292,N,0.540,K*6A
$GPGSA,A,3,,,,,,,,,,,,,0.0,0.8,0.0*3A
$GPRMC,102624.000,A,5034.270,N,00227.389,W,0.86,27.78,110422,,*20
$GPGGA,102624.000,5034.270,N,00227.389,W,1,09,0.8,6.080,M,0.0,M,,*70
$GPVTG,27.780,T,0,M,0.855,N,1.584,K*6A
$GPGSA,A,3,,,,,,,,,,,,,0.0,0.8,0.0*3A
$GPRMC,102625.000,A,5034.270,N,00227.389,W,2.08,353.14,110422,,*1F
$GPGGA,102625.000,5034.270,N,00227.389,W,1,09,0.8,5.970,M,0.0,M,,*74
$GPVTG,353.140,T,0,M,2.080,N,3.852,K*56
$GPGSA,A,3,,,,,,,,,,,,,0.0,0.8,0.0*3A
$GPRMC,102626.000,A,5034.271,N,00227.390,W,2.59,308.15,110422,,*1E
$GPGGA,102626.000,5034.271,N,00227.390,W,1,09,0.8,6.030,M,0.0,M,,*70
$GPVTG,308.150,T,0,M,2.585,N,4.788,K*56
$GPGSA,A,3,,,,,,,,,,,,,0.0,0.8,0.0*3A
$GPRMC,102627.000,A,5034.271,N,00227.391,W,2.24,290.76,110422,,*11
$GPGGA,102627.000,5034.271,N,00227.391,W,1,09,0.8,6.030,M,0.0,M,,*70
$GPVTG,290.760,T,0,M,2.235,N,4.140,K*5D
$GPGSA,A,3,,,,,,,,,,,,,0.0,0.8,0.0*3A
$GPRMC,102628.000,A,5034.271,N,00227.392,W,2.37,307.44,110422,,*11
$GPGGA,102628.000,5034.271,N,00227.392,W,1,09,0.8,6.000,M,0.0,M,,*7F
$GPVTG,307.440,T,0,M,2.371,N,4.392,K*5F
$GPGSA,A,3,,,,,,,,,,,,,0.0,0.8,0.0*3A
$GPRMC,102629.000,A,5034.272,N,00227.392,W,2.51,325.11,110422,,*13
$GPGGA,102629.000,5034.272,N,00227.392,W,1,09,0.8,6.030,M,0.0,M,,*7E
$GPVTG,325.110,T,0,M,2.508,N,4.644,K*59
$GPGSA,A,3,,,,,,,,,,,,,0.0,0.8,0.0*3A
$GPRMC,102630.000,A,5034.273,N,00227.393,W,2.84,333.25,110422,,*13
$GPGGA,102630.000,5034.273,N,00227.393,W,1,09,0.8,6.050,M,0.0,M,,*70
$GPVTG,333.250,T,0,M,2.838,N,5.256,K*51
$GPGSA,A,3,,,,,,,,,,,,,0.0,0.8,0.0*3A
$GPRMC,102631.000,A,5034.273,N,00227.393,W,3.11,345.13,110422,,*1B
$GPGGA,102631.000,5034.273,N,00227.393,W,1,09,0.8,6.020,M,0.0,M,,*76
$GPVTG,345.130,T,0,M,3.110,N,5.760,K*57
$GPGSA,A,3,,,,,,,,,,,,,0.0,0.8,0.0*3A
$GPRMC,102632.000,A,5034.274,N,00227.394,W,2.92,358.29,110422,,*17
$GPGGA,102632.000,5034.274,N,00227.394,W,1,09,0.8,6.090,M,0.0,M,,*7E
$GPVTG,358.290,T,0,M,2.916,N,5.400,K*58
$GPGSA,A,3,,,,,,,,,,,,,0.0,0.8,0.0*3A
$GPRMC,102633.000,A,5034.275,N,00227.394,W,2.80,339.82,110422,,*12
$GPGGA,102633.000,5034.275,N,00227.394,W,1,09,0.8,6.210,M,0.0,M,,*74
$GPVTG,339.820,T,0,M,2.799,N,5.184,K*5E
$GPGSA,A,3,,,,,,,,,,,,,0.0,0.8,0.0*3A
$GPRMC,102634.000,A,5034.276,N,00227.394,W,2.53,344.34,110422,,*1F
$GPGGA,102634.000,5034.276,N,00227.394,W,1,09,0.8,6.090,M,0.0,M,,*7A
$GPVTG,344.340,T,0,M,2.527,N,4.680,K*5C
$GPGSA,A,3,,,,,,,,,,,,,0.0,0.8,0.0*3A
$GPRMC,102635.000,A,5034.276,N,00227.394,W,0.80,136.70,110422,,*15
$GPGGA,102635.000,5034.276,N,00227.394,W,1,09,0.8,6.300,M,0.0,M,,*71
$GPVTG,136.700,T,0,M,0.797,N,1.476,K*5E
$GPGSA,A,3,,,,,,,,,,,,,0.0,0.8,0.0*3A
$GPRMC,102636.000,A,5034.276,N,00227.394,W,1.52,204.13,110422,,*1F
$GPGGA,102636.000,5034.276,N,00227.394,W,1,09,0.8,6.270,M,0.0,M,,*74
$GPVTG,204.130,T,0,M,1.516,N,2.808,K*55
$GPGSA,A,3,,,,,,,,,,,,,0.0,0.8,0.0*3A
$GPRMC,102637.000,A,5034.275,N,00227.395,W,2.31,214.61,110422,,*1E
$GPGGA,102637.000,5034.275,N,00227.395,W,1,09,0.8,6.140,M,0.0,M,,*77
$GPVTG,214.610,T,0,M,2.313,N,4.284,K*59
$GPGSA,A,3,,,,,,,,,,,,,0.0,0.8,0.0*3A
$GPRMC,102638.000,A,5034.275,N,00227.395,W,0.99,216.16,110422,,*13
$GPGGA,102638.000,5034.275,N,00227.395,W,1,09,0.8,5.820,M,0.0,M,,*74
$GPVTG,216.160,T,0,M,0.991,N,1.836,K*5F
$GPGSA,A,3,,,,,,,,,,,,,0.0,0.8,0.0*3A
$GPRMC,102641.000,A,5034.275,N,00227.395,W,0.29,257.17,110422,,*12
$GPGGA,102641.000,5034.275,N,00227.395,W,1,09,0.8,5.330,M,0.0,M,,*70
$GPVTG,257.170,T,0,M,0.292,N,0.540,K*5E
$GPGSA,A,3,,,,,,,,,,,,,0.0,0.8,0.0*3A
$GPRMC,102642.000,A,5034.275,N,00227.396,W,0.45,347.94,110422,,*13
$GPGGA,102642.000,5034.275,N,00227.396,W,1,09,0.8,5.200,M,0.0,M,,*72
$GPVTG,347.940,T,0,M,0.447,N,0.828,K*58
$GPGSA,A,3,,,,,,,,,,,,,0.0,0.8,0.0*3A
$GPRMC,102643.000,A,5034.275,N,00227.395,W,1.22,49.62,110422,,*25
$GPGGA,102643.000,5034.275,N,00227.395,W,1,09,0.8,5.440,M,0.0,M,,*72
$GPVTG,49.620,T,0,M,1.225,N,2.268,K*63
$GPGSA,A,3,,,,,,,,,,,,,0.0,0.8,0.0*3A
$GPRMC,102644.000,A,5034.275,N,00227.395,W,1.03,327.35,110422,,*18
$GPGGA,102644.000,5034.275,N,00227.395,W,1,09,0.8,5.100,M,0.0,M,,*74
$GPVTG,327.350,T,0,M,1.030,N,1.908,K*52
$GPGSA,A,3,,,,,,,,,,,,,0.0,0.8,0.0*3A
$GPRMC,102645.000,A,5034.275,N,00227.395,W,1.28,145.95,110422,,*1C
$GPGGA,102645.000,5034.275,N,00227.395,W,1,09,0.8,5.430,M,0.0,M,,*73
$GPVTG,145.950,T,0,M,1.283,N,2.376,K*54
$GPGSA,A,3,,,,,,,,,,,,,0.0,0.8,0.0*3A
$GPRMC,102646.000,A,5034.275,N,00227.395,W,0.43,135.83,110422,,*13
$GPGGA,102646.000,5034.275,N,00227.395,W,1,09,0.8,5.270,M,0.0,M,,*72
$GPVTG,135.830,T,0,M,0.428,N,0.792,K*5E
$GPGSA,A,3,,,,,,,,,,,,,0.0,0.8,0.0*3A
$GPRMC,102647.000,A,5034.275,N,00227.395,W,0.66,17.90,110422,,*26
$GPGGA,102647.000,5034.275,N,00227.395,W,1,09,0.8,5.480,M,0.0,M,,*7A
$GPVTG,17.900,T,0,M,0.661,N,1.224,K*6B
$GPGSA,A,3,,,,,,,,,,,,,0.0,0.8,0.0*3A
$GPRMC,102648.000,A,5034.275,N,00227.395,W,1.90,5.20,110422,,*19
$GPGGA,102648.000,5034.275,N,00227.395,W,1,09,0.8,5.470,M,0.0,M,,*7A
$GPVTG,5.200,T,0,M,1.905,N,3.528,K*56
$GPGSA,A,3,,,,,,,,,,,,,0.0,0.8,0.0*3A
$GPRMC,102649.000,A,5034.276,N,00227.395,W,1.92,315.42,110422,,*1F
$GPGGA,102649.000,5034.276,N,00227.395,W,1,09,0.8,5.500,M,0.0,M,,*7E
$GPVTG,315.420,T,0,M,1.924,N,3.564,K*5B
$GPGSA,A,3,,,,,,,,,,,,,0.0,0.8,0.0*3A
$GPRMC,102650.000,A,5034.276,N,00227.395,W,1.34,226.08,110422,,*14
$GPGGA,102650.000,5034.276,N,00227.395,W,1,09,0.8,5.350,M,0.0,M,,*75
$GPVTG,226.080,T,0,M,1.341,N,2.484,K*53
$GPGSA,A,3,,,,,,,,,,,,,0.0,0.8,0.0*3A
$GPRMC,102651.000,A,5034.276,N,00227.396,W,0.27,175.53,110422,,*1E
$GPGGA,102651.000,5034.276,N,00227.396,W,1,09,0.8,5.380,M,0.0,M,,*7A
$GPVTG,175.530,T,0,M,0.272,N,0.504,K*53
$GPGSA,A,3,,,,,,,,,,,,,0.0,0.8,0.0*3A
$GPRMC,102654.000,A,5034.276,N,00227.396,W,1.61,331.27,110422,,*19
$GPGGA,102654.000,5034.276,N,00227.396,W,1,07,1.0,5.620,M,0.0,M,,*77
$GPVTG,331.270,T,0,M,1.613,N,2.988,K*5A
$GPGSA,A,3,,,,,,,,,,,,,0.0,1.0,0.0*33
$GPRMC,102656.000,A,5034.276,N,00227.396,W,1.63,155.78,110422,,*13
$GPGGA,102656.000,5034.276,N,00227.396,W,1,09,0.8,6.420,M,0.0,M,,*73
$GPVTG,155.780,T,0,M,1.633,N,3.024,K*5C
$GPGSA,A,3,,,,,,,,,,,,,0.0,0.8,0.0*3A
$GPRMC,102657.000,A,5034.276,N,00227.396,W,0.52,137.07,110422,,*1D
$GPGGA,102657.000,5034.276,N,00227.396,W,1,09,0.8,6.380,M,0.0,M,,*7F
$GPVTG,137.070,T,0,M,0.525,N,0.972,K*5C
$GPGSA,A,3,,,,,,,,,,,,,0.0,0.8,0.0*3A
$GPRMC,102658.000,A,5034.276,N,00227.396,W,1.17,357.80,110422,,*19
$GPGGA,102658.000,5034.276,N,00227.396,W,1,09,0.8,7.340,M,0.0,M,,*7D
$GPVTG,357.800,T,0,M,1.166,N,2.160,K*5C
$GPGSA,A,3,,,,,,,,,,,,,0.0,0.8,0.0*3A
$GPRMC,102659.000,A,5034.276,N,00227.396,W,1.48,304.43,110422,,*1B
$GPGGA,102659.000,5034.276,N,00227.396,W,1,09,0.8,7.420,M,0.0,M,,*7D
$GPVTG,304.430,T,0,M,1.477,N,2.736,K*55
$GPGSA,A,3,,,,,,,,,,,,,0.0,0.8,0.0*3A
$GPRMC,102700.000,A,5034.277,N,00227.397,W,1.98,307.05,110422,,*1A
$GPGGA,102700.000,5034.277,N,00227.397,W,1,09,0.8,7.400,M,0.0,M,,*72
$GPVTG,307.050,T,0,M,1.983,N,3.672,K*52
$GPGSA,A,3,,,,,,,,,,,,,0.0,0.8,0.0*3A
$GPRMC,102701.000,A,5034.277,N,00227.397,W,2.49,312.47,110422,,*16
$GPGGA,102701.000,5034.277,N,00227.397,W,1,09,0.8,7.420,M,0.0,M,,*71
$GPVTG,312.470,T,0,M,2.488,N,4.608,K*5F
$GPGSA,A,3,,,,,,,,,,,,,0.0,0.8,0.0*3A
$GPRMC,102702.000,A,5034.278,N,00227.398,W,2.68,328.13,110422,,*1E
$GPGGA,102702.000,5034.278,N,00227.398,W,1,09,0.8,7.500,M,0.0,M,,*71
$GPVTG,328.130,T,0,M,2.683,N,4.968,K*57
$GPGSA,A,3,,,,,,,,,,,,,0.0,0.8,0.0*3A
$GPRMC,102703.000,A,5034.278,N,00227.399,W,2.76,333.06,110422,,*1F
$GPGGA,102703.000,5034.278,N,00227.399,W,1,09,0.8,7.440,M,0.0,M,,*74
$GPVTG,333.060,T,0,M,2.760,N,5.112,K*51
$GPGSA,A,3,,,,,,,,,,,,,0.0,0.8,0.0*3A
$GPRMC,102704.000,A,5034.279,N,00227.399,W,2.86,319.62,110422,,*1C
$GPGGA,102704.000,5034.279,N,00227.399,W,1,09,0.8,7.390,M,0.0,M,,*78
$GPVTG,319.620,T,0,M,2.857,N,5.292,K*5B
$GPGSA,A,3,,,,,,,,,,,,,0.0,0.8,0.0*3A
$GPRMC,102705.000,A,5034.279,N,00227.400,W,2.90,301.82,110422,,*1A
$GPGGA,102705.000,5034.279,N,00227.400,W,1,08,1.2,7.330,M,0.0,M,,*7E
$GPVTG,301.820,T,0,M,2.896,N,5.364,K*59
$GPGSA,A,3,,,,,,,,,,,,,0.0,1.2,0.0*31
$GPRMC,102706.000,A,5034.280,N,00227.401,W,2.72,293.13,110422,,*10
$GPGGA,102706.000,5034.280,N,00227.401,W,1,08,1.2,7.270,M,0.0,M,,*7F
$GPVTG,293.130,T,0,M,2.721,N,5.040,K*5D
$GPGSA,A,3,,,,,,,,,,,,,0.0,1.2,0.0*31
$GPRMC,102707.000,A,5034.280,N,00227.403,W,2.80,280.18,110422,,*17
$GPGGA,102707.000,5034.280,N,00227.403,W,1,08,1.2,7.220,M,0.0,M,,*79
$GPVTG,280.180,T,0,M,2.799,N,5.184,K*5E
$GPGSA,A,3,,,,,,,,,,,,,0.0,1.2,0.0*31
$GPRMC,102708.000,A,5034.280,N,00227.404,W,2.99,290.56,110422,,*1C
$GPGGA,102708.000,5034.280,N,00227.404,W,1,08,1.2,7.110,M,0.0,M,,*71
$GPVTG,290.560,T,0,M,2.994,N,5.544,K*5E
$GPGSA,A,3,,,,,,,,,,,,,0.0,1.2,0.0*31
$GPRMC,102709.000,A,5034.281,N,00227.405,W,2.97,292.87,110422,,*1D
$GPGGA,102709.000,5034.281,N,00227.405,W,1,08,1.2,6.970,M,0.0,M,,*7F
$GPVTG,292.870,T,0,M,2.974,N,5.508,K*56
$GPGSA,A,3,,,,,,,,,,,,,0.0,1.2,0.0*31
$GPRMC,102710.000,A,5034.281,N,00227.406,W,2.84,295.16,110422,,*1B
$GPGGA,102710.000,5034.281,N,00227.406,W,1,09,0.8,6.870,M,0.0,M,,*7F
$GPVTG,295.160,T,0,M,2.838,N,5.256,K*5C
$GPGSA,A,3,,,,,,,,,,,,,0.0,0.8,0.0*3A
$GPRMC,102711.000,A,5034.281,N,00227.407,W,3.03,299.12,110422,,*1D
$GPGGA,102711.000,5034.281,N,00227.407,W,1,09,0.8,6.670,M,0.0,M,,*71
$GPVTG,299.120,T,0,M,3.032,N,5.616,K*57
$GPGSA,A,3,,,,,,,,,,,,,0.0,0.8,0.0*3A
$GPRMC,102712.000,A,5034.282,N,00227.408,W,3.01,302.38,110422,,*1B
$GPGGA,102712.000,5034.282,N,00227.408,W,1,09,0.8,6.610,M,0.0,M,,*78
$GPVTG,302.380,T,0,M,3.013,N,5.580,K*53
$GPGSA,A,3,,,,,,,,,,,,,0.0,0.8,0.0*3A
$GPRMC,102713.000,A,5034.282,N,00227.410,W,3.27,307.12,110422,,*1A
$GPGGA,102713.000,5034.282,N,00227.410,W,1,09,0.8,6.540,M,0.0,M,,*76
$GPVTG,307.120,T,0,M,3.266,N,6.048,K*5C
$GPGSA,A,3,,,,,,,,,,,,,0.0,0.8,0.0*3A
$GPRMC,102714.000,A,5034.283,N,00227.411,W,3.15,300.82,110422,,*12
$GPGGA,102714.000,5034.283,N,00227.411,W,1,09,0.8,6.510,M,0.0,M,,*74
$GPVTG,300.820,T,0,M,3.149,N,5.832,K*5A
$GPGSA,A,3,,,,,,,,,,,,,0.0,0.8,0.0*3A
$GPRMC,102715.000,A,5034.283,N,00227.412,W,3.07,300.84,110422,,*15
$GPGGA,102715.000,5034.283,N,00227.412,W,1,09,0.8,6.500,M,0.0,M,,*77
$GPVTG,300.840,T,0,M,3.071,N,5.688,K*59
$GPGSA,A,3,,,,,,,,,,,,,0.0,0.8,0.0*3A
$GPRMC,102716.000,A,5034.284,N,00227.413,W,2.82,296.39,110422,,*14
$GPGGA,102716.000,5034.284,N,00227.413,W,1,09,0.8,6.490,M,0.0,M,,*7A
$GPVTG,296.390,T,0,M,2.819,N,5.220,K*50
$GPGSA,A,3,,,,,,,,,,,,,0.0,0.8,0.0*3A
$GPRMC,102717.000,A,5034.284,N,00227.414,W,2.31,280.98,110422,,*16
$GPGGA,102717.000,5034.284,N,00227.414,W,1,09,0.8,6.530,M,0.0,M,,*77
$GPVTG,280.980,T,0,M,2.313,N,4.284,K*52
$GPGSA,A,3,,,,,,,,,,,,,0.0,0.8,0.0*3A
$GPRMC,102718.000,A,5034.284,N,00227.415,W,2.16,268.60,110422,,*1C
$GPGGA,102718.000,5034.284,N,00227.415,W,1,09,0.8,6.530,M,0.0,M,,*79
$GPVTG,268.600,T,0,M,2.158,N,3.996,K*51
$GPGSA,A,3,,,,,,,,,,,,,0.0,0.8,0.0*3A
$GPRMC,102719.000,A,5034.284,N,00227.416,W,1.69,256.62,110422,,*1A
$GPGGA,102719.000,5034.284,N,00227.416,W,1,09,0.8,6.470,M,0.0,M,,*7E
$GPVTG,256.620,T,0,M,1.691,N,3.132,K*59
$GPGSA,A,3,,,,,,,,,,,,,0.0,0.8,0.0*3A
$GPRMC,102720.000,A,5034.284,N,00227.417,W,1.21,265.25,110422,,*1E
$GPGGA,102720.000,5034.284,N,00227.417,W,1,09,0.8,6.400,M,0.0,M,,*72
$GPVTG,265.250,T,0,M,1.205,N,2.232,K*51
$GPGSA,A,3,,,,,,,,,,,,,0.0,0.8,0.0*3A
$GPRMC,102721.000,A,5034.284,N,00227.417,W,2.33,235.99,110422,,*1D
$GPGGA,102721.000,5034.284,N,00227.417,W,1,09,0.8,6.330,M,0.0,M,,*77
$GPVTG,235.990,T,0,M,2.333,N,4.320,K*50
$GPGSA,A,3,,,,,,,,,,,,,0.0,0.8,0.0*3A
$GPRMC,102722.000,A,5034.283,N,00227.418,W,2.86,221.47,110422,,*1E
$GPGGA,102722.000,5034.283,N,00227.418,W,1,08,1.2,6.290,M,0.0,M,,*7D
$GPVTG,221.470,T,0,M,2.857,N,5.292,K*56
$GPGSA,A,3,,,,,,,,,,,,,0.0,1.2,0.0*31
$GPRMC,102723.000,A,5034.283,N,00227.419,W,2.88,213.90,110422,,*1B
$GPGGA,102723.000,5034.283,N,00227.419,W,1,08,1.2,6.270,M,0.0,M,,*73
$GPVTG,213.900,T,0,M,2.877,N,5.328,K*5F
$GPGSA,A,3,,,,,,,,,,,,,0.0,1.2,0.0*31
$GPRMC,102724.000,A,5034.282,N,00227.420,W,2.92,211.22,110422,,*17
$GPGGA,102724.000,5034.282,N,00227.420,W,1,08,1.2,6.290,M,0.0,M,,*71
$GPVTG,211.220,T,0,M,2.916,N,5.400,K*5F
$GPGSA,A,3,,,,,,,,,,,,,0.0,1.2,0.0*31
$GPRMC,102725.000,A,5034.281,N,00227.420,W,2.72,217.06,110422,,*1B
$GPGGA,102725.000,5034.281,N,00227.420,W,1,09,0.8,6.340,M,0.0,M,,*75
$GPVTG,217.060,T,0,M,2.721,N,5.040,K*55
$GPGSA,A,3,,,,,,,,,,,,,0.0,0.8,0.0*3A
$GPRMC,102726.000,A,5034.281,N,00227.421,W,2.51,241.85,110422,,*10
$GPGGA,102726.000,5034.281,N,00227.421,W,1,09,0.8,6.300,M,0.0,M,,*73
$GPVTG,241.850,T,0,M,2.508,N,4.644,K*57
$GPGSA,A,3,,,,,,,,,,,,,0.0,0.8,0.0*3A
$GPRMC,102727.000,A,5034.281,N,00227.422,W,2.10,272.45,110422,,*1B
$GPGGA,102727.000,5034.281,N,00227.422,W,1,08,1.2,6.150,M,0.0,M,,*7C
$GPVTG,272.450,T,0,M,2.099,N,3.888,K*5F
$GPGSA,A,3,,,,,,,,,,,,,0.0,1.2,0.0*31
$GPRMC,102728.000,A,5034.281,N,00227.423,W,1.28,280.43,110422,,*16
$GPGGA,102728.000,5034.281,N,00227.423,W,1,08,1.2,6.060,M,0.0,M,,*70
$GPVTG,280.430,T,0,M,1.283,N,2.376,K*55
$GPGSA,A,3,,,,,,,,,,,,,0.0,1.2,0.0*31
$GPRMC,102729.000,A,5034.281,N,00227.424,W,2.37,302.40,110422,,*15
$GPGGA,102729.000,5034.281,N,00227.424,W,1,08,1.2,5.880,M,0.0,M,,*73
$GPVTG,302.400,T,0,M,2.371,N,4.392,K*5E
$GPGSA,A,3,,,,,,,,,,,,,0.0,1.2,0.0*31
$GPRMC,102730.000,A,5034.281,N,00227.424,W,2.29,302.66,110422,,*16
$GPGGA,102730.000,5034.281,N,00227.424,W,1,08,1.2,5.670,M,0.0,M,,*7A
$GPVTG,302.660,T,0,M,2.294,N,4.248,K*56
$GPGSA,A,3,,,,,,,,,,,,,0.0,1.2,0.0*31
$GPRMC,102731.000,A,5034.282,N,00227.425,W,2.14,301.47,110422,,*1B
$GPGGA,102731.000,5034.282,N,00227.425,W,1,08,1.2,5.470,M,0.0,M,,*7B
$GPVTG,301.470,T,0,M,2.138,N,3.960,K*55
$GPGSA,A,3,,,,,,,,,,,,,0.0,1.2,0.0*31
$GPRMC,102732.000,A,5034.282,N,00227.426,W,2.22,301.16,110422,,*1A
$GPGGA,102732.000,5034.282,N,00227.426,W,1,08,1.2,5.270,M,0.0,M,,*7D
$GPVTG,301.160,T,0,M,2.216,N,4.104,K*53
$GPGSA,A,3,,,,,,,,,,,,,0.0,1.2,0.0*31
$GPRMC,102733.000,A,5034.282,N,00227.427,W,2.27,310.08,110422,,*10
$GPGGA,102733.000,5034.282,N,00227.427,W,1,09,0.8,5.010,M,0.0,M,,*73
$GPVTG,310.080,T,0,M,2.274,N,4.212,K*5C
$GPGSA,A,3,,,,,,,,,,,,,0.0,0.8,0.0*3A
$GPRMC,102734.000,A,5034.283,N,00227.428,W,2.00,313.97,110422,,*19
$GPGGA,102734.000,5034.283,N,00227.428,W,1,09,0.8,4.780,M,0.0,M,,*75
$GPVTG,313.970,T,0,M,2.002,N,3.708,K*53
$GPGSA,A,3,,,,,,,,,,,,,0.0,0.8,0.0*3A
$GPRMC,102735.000,A,5034.283,N,00227.428,W,1.98,304.38,110422,,*19
$GPGGA,102735.000,5034.283,N,00227.428,W,1,09,0.8,4.580,M,0.0,M,,*76
$GPVTG,304.380,T,0,M,1.983,N,3.672,K*5F
$GPGSA,A,3,,,,,,,,,,,,,0.0,0.8,0.0*3A
$GPRMC,102736.000,A,5034.283,N,00227.429,W,2.00,301.48,110422,,*1B
$GPGGA,102736.000,5034.283,N,00227.429,W,1,09,0.8,4.400,M,0.0,M,,*7D
$GPVTG,301.480,T,0,M,2.002,N,3.708,K*52
$GPGSA,A,3,,,,,,,,,,,,,0.0,0.8,0.0*3A
$GPRMC,102737.000,A,5034.284,N,00227.430,W,1.79,303.81,110422,,*1F
$GPGGA,102737.000,5034.284,N,00227.430,W,1,09,0.8,4.200,M,0.0,M,,*75
$GPVTG,303.810,T,0,M,1.788,N,3.312,K*5C
$GPGSA,A,3,,,,,,,,,,,,,0.0,0.8,0.0*3A
$GPRMC,102738.000,A,5034.284,N,00227.430,W,1.67,298.32,110422,,*14
$GPGGA,102738.000,5034.284,N,00227.430,W,1,09,0.8,3.970,M,0.0,M,,*71
$GPVTG,298.320,T,0,M,1.672,N,3.096,K*5C
$GPGSA,A,3,,,,,,,,,,,,,0.0,0.8,0.0*3A
$GPRMC,102739.000,A,5034.284,N,00227.431,W,1.54,287.44,110422,,*1B
$GPGGA,102739.000,5034.284,N,00227.431,W,1,08,1.2,3.830,M,0.0,M,,*7E
$GPVTG,287.440,T,0,M,1.536,N,2.844,K*56
$GPGSA,A,3,,,,,,,,,,,,,0.0,1.2,0.0*31
$GPRMC,102740.000,A,5034.284,N,00227.431,W,0.51,296.52,110422,,*16
$GPGGA,102740.000,5034.284,N,00227.431,W,1,08,1.2,3.720,M,0.0,M,,*7E
$GPVTG,296.520,T,0,M,0.505,N,0.936,K*56
$GPGSA,A,3,,,,,,,,,,,,,0.0,1.2,0.0*31
$GPRMC,102742.000,A,5034.284,N,00227.432,W,1.32,247.14,110422,,*1D
$GPGGA,102742.000,5034.284,N,00227.432,W,1,09,0.8,3.540,M,0.0,M,,*71
$GPVTG,247.140,T,0,M,1.322,N,2.448,K*5C
$GPGSA,A,3,,,,,,,,,,,,,0.0,0.8,0.0*3A
$GPRMC,102743.000,A,5034.284,N,00227.432,W,0.37,259.71,110422,,*14
$GPGGA,102743.000,5034.284,N,00227.432,W,1,09,0.8,3.470,M,0.0,M,,*72
$GPVTG,259.710,T,0,M,0.369,N,0.684,K*5E
$GPGSA,A,3,,,,,,,,,,,,,0.0,0.8,0.0*3A
$GPRMC,102745.000,A,5034.284,N,00227.432,W,0.51,231.94,110422,,*17
$GPGGA,102745.000,5034.284,N,00227.432,W,1,09,0.8,3.510,M,0.0,M,,*73
$GPVTG,231.940,T,0,M,0.505,N,0.936,K*51
$GPGSA,A,3,,,,,,,,,,,,,0.0,0.8,0.0*3A
$GPRMC,102746.000,A,5034.284,N,00227.432,W,0.31,234.55,110422,,*1A
$GPGGA,102746.000,5034.284,N,00227.432,W,1,09,0.8,3.310,M,0.0,M,,*76
$GPVTG,234.550,T,0,M,0.311,N,0.576,K*52
$GPGSA,A,3,,,,,,,,,,,,,0.0,0.8,0.0*3A
$GPRMC,102749.000,A,5034.284,N,00227.432,W,0.68,87.06,110422,,*25
$GPGGA,102749.000,5034.284,N,00227.432,W,1,09,0.8,3.210,M,0.0,M,,*78
$GPVTG,87.060,T,0,M,0.680,N,1.260,K*62
$GPGSA,A,3,,,,,,,,,,,,,0.0,0.8,0.0*3A
$GPRMC,102750.000,A,5034.284,N,00227.432,W,0.84,10.29,110422,,*2C
$GPGGA,102750.000,5034.284,N,00227.432,W,1,09,0.8,3.140,M,0.0,M,,*76
$GPVTG,10.290,T,0,M,0.836,N,1.548,K*6F
$GPGSA,A,3,,,,,,,,,,,,,0.0,0.8,0.0*3A
$GPRMC,102751.000,A,5034.284,N,00227.432,W,0.47,38.48,110422,,*2F
$GPGGA,102751.000,5034.284,N,00227.432,W,1,09,0.8,3.110,M,0.0,M,,*72
$GPVTG,38.480,T,0,M,0.467,N,0.864,K*68
$GPGSA,A,3,,,,,,,,,,,,,0.0,0.8,0.0*3A
$GPRMC,102752.000,A,5034.285,N,00227.432,W,0.68,42.30,110422,,*22
$GPGGA,102752.000,5034.285,N,00227.432,W,1,09,0.8,3.040,M,0.0,M,,*74
$GPVTG,42.300,T,0,M,0.680,N,1.260,K*6E
$GPGSA,A,3,,,,,,,,,,,,,0.0,0.8,0.0*3A
$GPRMC,102753.000,A,5034.285,N,00227.432,W,0.74,57.61,110422,,*2E
$GPGGA,102753.000,5034.285,N,00227.432,W,1,08,1.2,2.990,M,0.0,M,,*7A
$GPVTG,57.610,T,0,M,0.739,N,1.368,K*64
$GPGSA,A,3,,,,,,,,,,,,,0.0,1.2,0.0*31
$GPRMC,102754.000,A,5034.285,N,00227.431,W,1.01,38.63,110422,,*22
$GPGGA,102754.000,5034.285,N,00227.431,W,1,08,1.2,2.930,M,0.0,M,,*74
$GPVTG,38.630,T,0,M,1.011,N,1.872,K*63
$GPGSA,A,3,,,,,,,,,,,,,0.0,1.2,0.0*31
$GPRMC,102755.000,A,5034.285,N,00227.431,W,0.82,29.15,110422,,*28
$GPGGA,102755.000,5034.285,N,00227.431,W,1,09,0.8,2.900,M,0.0,M,,*7C
$GPVTG,29.150,T,0,M,0.816,N,1.512,K*67
$GPGSA,A,3,,,,,,,,,,,,,0.0,0.8,0.0*3A
$GPRMC,102758.000,A,5034.285,N,00227.431,W,0.29,246.55,110422,,*1B
$GPGGA,102758.000,5034.285,N,00227.431,W,1,09,0.8,2.800,M,0.0,M,,*70
$GPVTG,246.550,T,0,M,0.292,N,0.540,K*58
$GPGSA,A,3,,,,,,,,,,,,,0.0,0.8,0.0*3A
$GPRMC,102759.000,A,5034.285,N,00227.431,W,0.62,297.71,110422,,*1F
$GPGGA,102759.000,5034.285,N,00227.431,W,1,09,0.8,2.690,M,0.0,M,,*76
$GPVTG,297.710,T,0,M,0.622,N,1.152,K*5B
$GPGSA,A,3,,,,,,,,,,,,,0.0,0.8,0.0*3A
$GPRMC,102800.000,A,5034.285,N,00227.431,W,0.74,347.02,110422,,*13
$GPGGA,102800.000,5034.285,N,00227.431,W,1,09,0.8,2.570,M,0.0,M,,*78
$GPVTG,347.020,T,0,M,0.739,N,1.368,K*53
$GPGSA,A,3,,,,,,,,,,,,,0.0,0.8,0.0*3A
$GPRMC,102801.000,A,5034.286,N,00227.431,W,0.72,29.68,110422,,*20
$GPGGA,102801.000,5034.286,N,00227.431,W,1,09,0.8,2.500,M,0.0,M,,*7D
$GPVTG,29.680,T,0,M,0.719,N,1.332,K*69
$GPGSA,A,3,,,,,,,,,,,,,0.0,0.8,0.0*3A
$GPRMC,102802.000,A,5034.286,N,00227.431,W,0.31,45.88,110422,,*20
$GPGGA,102802.000,5034.286,N,00227.431,W,1,09,0.8,2.420,M,0.0,M,,*7D
$GPVTG,45.880,T,0,M,0.311,N,0.576,K*66
$GPGSA,A,3,,,,,,,,,,,,,0.0,0.8,0.0*3A
$GPRMC,102803.000,A,5034.286,N,00227.431,W,1.67,317.90,110422,,*1E
$GPGGA,102803.000,5034.286,N,00227.431,W,1,09,0.8,2.760,M,0.0,M,,*7B
$GPVTG,317.900,T,0,M,1.672,N,3.096,K*52
$GPGSA,A,3,,,,,,,,,,,,,0.0,0.8,0.0*3A
$GPRMC,102804.000,A,5034.286,N,00227.432,W,2.12,314.56,110422,,*12
$GPGGA,102804.000,5034.286,N,00227.432,W,1,09,0.8,2.930,M,0.0,M,,*74
$GPVTG,314.560,T,0,M,2.119,N,3.924,K*52
$GPGSA,A,3,,,,,,,,,,,,,0.0,0.8,0.0*3A
$GPRMC,102805.000,A,5034.287,N,00227.433,W,2.66,337.63,110422,,*17
$GPGGA,102805.000,5034.287,N,00227.433,W,1,09,0.8,3.030,M,0.0,M,,*7D
$GPVTG,337.630,T,0,M,2.663,N,4.932,K*5F
$GPGSA,A,3,,,,,,,,,,,,,0.0,0.8,0.0*3A
$GPRMC,102806.000,A,5034.288,N,00227.433,W,3.19,357.57,110422,,*13
$GPGGA,102806.000,5034.288,N,00227.433,W,1,09,0.8,3.070,M,0.0,M,,*75
$GPVTG,357.570,T,0,M,3.188,N,5.904,K*59
$GPGSA,A,3,,,,,,,,,,,,,0.0,0.8,0.0*3A
$GPRMC,102807.000,A,5034.289,N,00227.433,W,4.00,358.21,110422,,*12
$GPGGA,102807.000,5034.289,N,00227.433,W,1,09,0.8,3.060,M,0.0,M,,*74
$GPVTG,358.210,T,0,M,4.004,N,7.416,K*59
$GPGSA,A,3,,,,,,,,,,,,,0.0,0.8,0.0*3A
$GPRMC,102808.000,A,5034.290,N,00227.433,W,4.26,348.48,110422,,*1F
$GPGGA,102808.000,5034.290,N,00227.433,W,1,09,0.8,3.050,M,0.0,M,,*70
$GPVTG,348.480,T,0,M,4.257,N,7.884,K*54
$GPGSA,A,3,,,,,,,,,,,,,0.0,0.8,0.0*3A
$GPRMC,102809.000,A,5034.291,N,00227.434,W,4.88,343.31,110422,,*19
$GPGGA,102809.000,5034.291,N,00227.434,W,1,09,0.8,3.030,M,0.0,M,,*71
$GPVTG,343.310,T,0,M,4.879,N,9.036,K*58
$GPGSA,A,3,,,,,,,,,,,,,0.0,0.8,0.0*3A
$GPRMC,102810.000,A,5034.293,N,00227.434,W,6.10,349.96,110422,,*17
$GPGGA,102810.000,5034.293,N,00227.434,W,1,09,0.8,2.980,M,0.0,M,,*78
$GPVTG,349.960,T,0,M,6.104,N,11.304,K*65
$GPGSA,A,3,,,,,,,,,,,,,0.0,0.8,0.0*3A
$GPRMC,102811.000,A,5034.295,N,00227.435,W,6.82,348.16,110422,,*13
$GPGGA,102811.000,5034.295,N,00227.435,W,1,09,0.8,2.930,M,0.0,M,,*75
$GPVTG,348.160,T,0,M,6.823,N,12.636,K*67
$GPGSA,A,3,,,,,,,,,,,,,0.0,0.8,0.0*3A
$GPRMC,102812.000,A,5034.296,N,00227.435,W,6.94,347.59,110422,,*10
$GPGGA,102812.000,5034.296,N,00227.435,W,1,09,0.8,2.880,M,0.0,M,,*7F
$GPVTG,347.590,T,0,M,6.940,N,12.852,K*6B
$GPGSA,A,3,,,,,,,,,,,,,0.0,0.8,0.0*3A
$GPRMC,102813.000,A,5034.298,N,00227.436,W,6.32,348.95,110422,,*1F
$GPGGA,102813.000,5034.298,N,00227.436,W,1,09,0.8,2.910,M,0.0,M,,*7B
$GPVTG,348.950,T,0,M,6.317,N,11.700,K*67
$GPGSA,A,3,,,,,,,,,,,,,0.0,0.8,0.0*3A
$GPRMC,102814.000,A,5034.300,N,00227.436,W,6.16,353.68,110422,,*16
$GPGGA,102814.000,5034.300,N,00227.436,W,1,09,0.8,2.900,M,0.0,M,,*7D
$GPVTG,353.680,T,0,M,6.162,N,11.412,K*6F
$GPGSA,A,3,,,,,,,,,,,,,0.0,0.8,0.0*3A
$GPRMC,102815.000,A,5034.302,N,00227.437,W,7.02,353.00,110422,,*1E
$GPGGA,102815.000,5034.302,N,00227.437,W,1,09,0.8,2.840,M,0.0,M,,*7A
$GPVTG,353.000,T,0,M,7.017,N,12.996,K*61
$GPGSA,A,3,,,,,,,,,,,,,0.0,0.8,0.0*3A
$GPRMC,102816.000,A,5034.304,N,00227.437,W,7.83,346.03,110422,,*15
$GPGGA,102816.000,5034.304,N,00227.437,W,1,09,0.8,2.800,M,0.0,M,,*7B
$GPVTG,346.030,T,0,M,7.834,N,14.508,K*62
$GPGSA,A,3,,,,,,,,,,,,,0.0,0.8,0.0*3A
$GPRMC,102817.000,A,5034.306,N,00227.438,W,8.73,342.13,110422,,*1C
$GPGGA,102817.000,5034.306,N,00227.438,W,1,09,0.8,2.910,M,0.0,M,,*77
$GPVTG,342.130,T,0,M,8.728,N,16.164,K*66
$GPGSA,A,3,,,,,,,,,,,,,0.0,0.8,0.0*3A
$GPRMC,102818.000,A,5034.309,N,00227.440,W,9.47,336.73,110422,,*10
$GPGGA,102818.000,5034.309,N,00227.440,W,1,09,0.8,2.880,M,0.0,M,,*70
$GPVTG,336.730,T,0,M,9.467,N,17.532,K*6C
$GPGSA,A,3,,,,,,,,,,,,,0.0,0.8,0.0*3A
$GPRMC,102819.000,A,5034.311,N,00227.441,W,9.52,338.33,110422,,*17
$GPGGA,102819.000,5034.311,N,00227.441,W,1,09,0.8,2.860,M,0.0,M,,*77
$GPVTG,338.330,T,0,M,9.525,N,17.640,K*67
$GPGSA,A,3,,,,,,,,,,,,,0.0,0.8,0.0*3A
$GPRMC,102820.000,A,5034.313,N,00227.443,W,8.90,342.29,110422,,*14
$GPGGA,102820.000,5034.313,N,00227.443,W,1,09,0.8,2.870,M,0.0,M,,*7C
$GPVTG,342.290,T,0,M,8.903,N,16.488,K*6F
$GPGSA,A,3,,,,,,,,,,,,,0.0,0.8,0.0*3A
$GPRMC,102821.000,A,5034.316,N,00227.443,W,7.13,353.06,110422,,*19
$GPGGA,102821.000,5034.316,N,00227.443,W,1,09,0.8,2.800,M,0.0,M,,*7F
$GPVTG,353.060,T,0,M,7.134,N,13.212,K*61
$GPGSA,A,3,,,,,,,,,,,,,0.0,0.8,0.0*3A
$GPRMC,102822.000,A,5034.317,N,00227.444,W,4.37,357.75,110422,,*19
$GPGGA,102822.000,5034.317,N,00227.444,W,1,09,0.8,2.730,M,0.0,M,,*76
$GPVTG,357.750,T,0,M,4.374,N,8.100,K*5E
$GPGSA,A,3,,,,,,,,,,,,,0.0,0.8,0.0*3A
$GPRMC,102823.000,A,5034.318,N,00227.444,W,3.95,352.51,110422,,*1B
$GPGGA,102823.000,5034.318,N,00227.444,W,1,09,0.8,2.770,M,0.0,M,,*7C
$GPVTG,352.510,T,0,M,3.946,N,7.308,K*54
$GPGSA,A,3,,,,,,,,,,,,,0.0,0.8,0.0*3A
$GPRMC,102824.000,A,5034.320,N,00227.444,W,4.53,352.77,110422,,*1E
$GPGGA,102824.000,5034.320,N,00227.444,W,1,09,0.8,2.780,M,0.0,M,,*7F
$GPVTG,352.770,T,0,M,4.529,N,8.388,K*55
$GPGSA,A,3,,,,,,,,,,,,,0.0,0.8,0.0*3A
$GPRMC,102825.000,A,5034.321,N,00227.444,W,3.95,349.58,110422,,*14
$GPGGA,102825.000,5034.321,N,00227.444,W,1,09,0.8,2.700,M,0.0,M,,*77
$GPVTG,349.580,T,0,M,3.946,N,7.308,K*57
$GPGSA,A,3,,,,,,,,,,,,,0.0,0.8,0.0*3A
$GPRMC,102826.000,A,5034.322,N,00227.445,W,3.77,349.27,110422,,*11
$GPGGA,102826.000,5034.322,N,00227.445,W,1,09,0.8,2.670,M,0.0,M,,*70
$GPVTG,349.270,T,0,M,3.771,N,6.984,K*5A
$GPGSA,A,3,,,,,,,,,,,,,0.0,0.8,0.0*3A
$GPRMC,102827.000,A,5034.323,N,00227.445,W,4.51,349.83,110422,,*1C
$GPGGA,102827.000,5034.323,N,00227.445,W,1,09,0.8,2.650,M,0.0,M,,*72
$GPVTG,349.830,T,0,M,4.510,N,8.352,K*59
$GPGSA,A,3,,,,,,,,,,,,,0.0,0.8,0.0*3A
$GPRMC,102828.000,A,5034.324,N,00227.445,W,4.57,349.87,110422,,*16
$GPGGA,102828.000,5034.324,N,00227.445,W,1,09,0.8,2.600,M,0.0,M,,*7F
$GPVTG,349.870,T,0,M,4.568,N,8.460,K*54
$GPGSA,A,3,,,,,,,,,,,,,0.0,0.8,0.0*3A
$GPRMC,102829.000,A,5034.326,N,00227.446,W,5.85,351.65,110422,,*1D
$GPGGA,102829.000,5034.326,N,00227.446,W,1,09,0.8,2.580,M,0.0,M,,*74
$GPVTG,351.650,T,0,M,5.851,N,10.836,K*61
$GPGSA,A,3,,,,,,,,,,,,,0.0,0.8,0.0*3A
$GPRMC,102830.000,A,5034.327,N,00227.446,W,7.37,349.38,110422,,*1E
$GPGGA,102830.000,5034.327,N,00227.446,W,1,09,0.8,2.570,M,0.0,M,,*72
$GPVTG,349.380,T,0,M,7.367,N,13.644,K*64
$GPGSA,A,3,,,,,,,,,,,,,0.0,0.8,0.0*3A
$GPRMC,102831.000,A,5034.330,N,00227.447,W,9.41,355.30,110422,,*12
$GPGGA,102831.000,5034.330,N,00227.447,W,1,09,0.8,2.610,M,0.0,M,,*71
$GPVTG,355.300,T,0,M,9.408,N,17.424,K*61
$GPGSA,A,3,,,,,,,,,,,,,0.0,0.8,0.0*3A
$GPRMC,102832.000,A,5034.333,N,00227.447,W,11.53,357.14,110422,,*2C
$GPGGA,102832.000,5034.333,N,00227.447,W,1,09,0.8,2.650,M,0.0,M,,*75
$GPVTG,357.140,T,0,M,11.527,N,21.348,K*58
$GPGSA,A,3,,,,,,,,,,,,,0.0,0.8,0.0*3A
$GPRMC,102833.000,A,5034.336,N,00227.447,W,12.54,356.21,110422,,*2B
$GPGGA,102833.000,5034.336,N,00227.447,W,1,09,0.8,2.650,M,0.0,M,,*71
$GPVTG,356.210,T,0,M,12.538,N,23.220,K*5F
$GPGSA,A,3,,,,,,,,,,,,,0.0,0.8,0.0*3A
$GPRMC,102834.000,A,5034.340,N,00227.448,W,13.43,349.27,110422,,*2D
$GPGGA,102834.000,5034.340,N,00227.448,W,1,09,0.8,2.730,M,0.0,M,,*7F
$GPVTG,349.270,T,0,M,13.432,N,24.876,K*53
$GPGSA,A,3,,,,,,,,,,,,,0.0,0.8,0.0*3A
$GPRMC,102835.000,A,5034.343,N,00227.449,W,13.51,349.54,110422,,*29
$GPGGA,102835.000,5034.343,N,00227.449,W,1,09,0.8,2.710,M,0.0,M,,*7E
$GPVTG,349.540,T,0,M,13.510,N,25.020,K*5C
$GPGSA,A,3,,,,,,,,,,,,,0.0,0.8,0.0*3A
$GPRMC,102836.000,A,5034.347,N,00227.450,W,14.75,350.37,110422,,*2A
$GPGGA,102836.000,5034.347,N,00227.450,W,1,09,0.8,2.650,M,0.0,M,,*74
$GPVTG,350.370,T,0,M,14.754,N,27.324,K*51
$GPGSA,A,3,,,,,,,,,,,,,0.0,0.8,0.0*3A
$GPRMC,102837.000,A,5034.352,N,00227.451,W,16.52,349.02,110422,,*27
$GPGGA,102837.000,5034.352,N,00227.451,W,1,09,0.8,2.690,M,0.0,M,,*7C
$GPVTG,349.020,T,0,M,16.523,N,30.600,K*5A
$GPGSA,A,3,,,,,,,,,,,,,0.0,0.8,0.0*3A
$GPRMC,102838.000,A,5034.356,N,00227.453,W,18.91,343.08,110422,,*2F
$GPGGA,102838.000,5034.356,N,00227.453,W,1,09,0.8,2.680,M,0.0,M,,*74
$GPVTG,343.080,T,0,M,18.914,N,35.028,K*55
$GPGSA,A,3,,,,,,,,,,,,,0.0,0.8,0.0*3A
$GPRMC,102839.000,A,5034.362,N,00227.456,W,19.34,340.88,110422,,*29
$GPGGA,102839.000,5034.362,N,00227.456,W,1,09,0.8,2.700,M,0.0,M,,*7E
$GPVTG,340.880,T,0,M,19.341,N,35.820,K*55
$GPGSA,A,3,,,,,,,,,,,,,0.0,0.8,0.0*3A
$GPRMC,102840.000,A,5034.367,N,00227.459,W,19.67,338.98,110422,,*25
$GPGGA,102840.000,5034.367,N,00227.459,W,1,09,0.8,2.650,M,0.0,M,,*7E
$GPVTG,338.980,T,0,M,19.672,N,36.432,K*52
$GPGSA,A,3,,,,,,,,,,,,,0.0,0.8,0.0*3A
$GPRMC,102841.000,A,5034.372,N,00227.462,W,18.87,338.59,110422,,*2A
$GPGGA,102841.000,5034.372,N,00227.462,W,1,09,0.8,2.560,M,0.0,M,,*73
$GPVTG,338.590,T,0,M,18.875,N,34.956,K*5A
$GPGSA,A,3,,,,,,,,,,,,,0.0,0.8,0.0*3A
$GPRMC,102842.000,A,5034.377,N,00227.465,W,18.12,339.83,110422,,*21
